[
    {
        "id": "urn:ngsi-ld:station:001",
        "type": "BikeHireDockingStation",
        "address": "Rue Jules Ferry - Gare Saint-Roch",
        "availableBikeNumber": 9,
        "totalSlotNumber": 12,
        "longitude": 43.605366,
        "latitude": 3.881346,
        "status": "working",
        "Date": "01/02/2025",
        "Hour": "00:19:07"
    },
    {
        "id": "urn:ngsi-ld:station:002",
        "type": "BikeHireDockingStation",
        "address": "Comédie",
        "availableBikeNumber": 4,
        "totalSlotNumber": 20,
        "longitude": 43.608148,
        "latitude": 3.878778,
        "status": "working",
        "Date": "01/02/2025",
        "Hour": "00:19:07"
    },
    {
        "id": "urn:ngsi-ld:station:004",
        "type": "BikeHireDockingStation",
        "address": "Hôtel de Ville",
        "availableBikeNumber": 9,
        "totalSlotNumber": 16,
        "longitude": 43.599088,
        "latitude": 3.894866,
        "status": "working",
        "Date": "01/02/2025",
        "Hour": "00:19:07"
    },
    {
        "id": "urn:ngsi-ld:station:005",
        "type": "BikeHireDockingStation",
        "address": "Corum",
        "availableBikeNumber": 3,
        "totalSlotNumber": 12,
        "longitude": 43.613989,
        "latitude": 3.8816,
        "status": "working",
        "Date": "01/02/2025",
        "Hour": "00:19:07"
    },
    {
        "id": "urn:ngsi-ld:station:006",
        "type": "BikeHireDockingStation",
        "address": "Place Albert 1er - St Charles",
        "availableBikeNumber": 22,
        "totalSlotNumber": 27,
        "longitude": 43.616768,
        "latitude": 3.873375,
        "status": "working",
        "Date": "01/02/2025",
        "Hour": "00:19:07"
    },
    {
        "id": "urn:ngsi-ld:station:007",
        "type": "BikeHireDockingStation",
        "address": "Foch",
        "availableBikeNumber": 0,
        "totalSlotNumber": 8,
        "longitude": 43.610989,
        "latitude": 3.873345,
        "status": "working",
        "Date": "01/02/2025",
        "Hour": "00:19:07"
    },
    {
        "id": "urn:ngsi-ld:station:008",
        "type": "BikeHireDockingStation",
        "address": "Halles Castellane",
        "availableBikeNumber": 2,
        "totalSlotNumber": 12,
        "longitude": 43.609935,
        "latitude": 3.877208,
        "status": "working",
        "Date": "01/02/2025",
        "Hour": "00:19:07"
    },
    {
        "id": "urn:ngsi-ld:station:009",
        "type": "BikeHireDockingStation",
        "address": "Observatoire",
        "availableBikeNumber": 6,
        "totalSlotNumber": 8,
        "longitude": 43.606301,
        "latitude": 3.87724,
        "status": "working",
        "Date": "01/02/2025",
        "Hour": "00:19:07"
    },
    {
        "id": "urn:ngsi-ld:station:010",
        "type": "BikeHireDockingStation",
        "address": "Rondelet",
        "availableBikeNumber": 6,
        "totalSlotNumber": 16,
        "longitude": 43.603038,
        "latitude": 3.875796,
        "status": "working",
        "Date": "01/02/2025",
        "Hour": "00:19:07"
    },
    {
        "id": "urn:ngsi-ld:station:011",
        "type": "BikeHireDockingStation",
        "address": "Plan Cabanes",
        "availableBikeNumber": 5,
        "totalSlotNumber": 12,
        "longitude": 43.608491,
        "latitude": 3.868389,
        "status": "working",
        "Date": "01/02/2025",
        "Hour": "00:19:07"
    },
    {
        "id": "urn:ngsi-ld:station:012",
        "type": "BikeHireDockingStation",
        "address": "Boutonnet",
        "availableBikeNumber": 4,
        "totalSlotNumber": 12,
        "longitude": 43.622629,
        "latitude": 3.868375,
        "status": "working",
        "Date": "01/02/2025",
        "Hour": "00:19:07"
    },
    {
        "id": "urn:ngsi-ld:station:013",
        "type": "BikeHireDockingStation",
        "address": "Emile Combes",
        "availableBikeNumber": 6,
        "totalSlotNumber": 8,
        "longitude": 43.616742,
        "latitude": 3.87998,
        "status": "working",
        "Date": "01/02/2025",
        "Hour": "00:19:07"
    },
    {
        "id": "urn:ngsi-ld:station:014",
        "type": "BikeHireDockingStation",
        "address": "Beaux-Arts",
        "availableBikeNumber": 9,
        "totalSlotNumber": 16,
        "longitude": 43.616698,
        "latitude": 3.884981,
        "status": "working",
        "Date": "01/02/2025",
        "Hour": "00:19:07"
    },
    {
        "id": "urn:ngsi-ld:station:015",
        "type": "BikeHireDockingStation",
        "address": "Les Aubes",
        "availableBikeNumber": 4,
        "totalSlotNumber": 8,
        "longitude": 43.618692,
        "latitude": 3.893844,
        "status": "working",
        "Date": "01/02/2025",
        "Hour": "00:19:07"
    },
    {
        "id": "urn:ngsi-ld:station:016",
        "type": "BikeHireDockingStation",
        "address": "Antigone centre",
        "availableBikeNumber": 10,
        "totalSlotNumber": 12,
        "longitude": 43.607942,
        "latitude": 3.890634,
        "status": "working",
        "Date": "01/02/2025",
        "Hour": "00:19:07"
    },
    {
        "id": "urn:ngsi-ld:station:017",
        "type": "BikeHireDockingStation",
        "address": "Médiathèque Emile Zola",
        "availableBikeNumber": 3,
        "totalSlotNumber": 16,
        "longitude": 43.608218,
        "latitude": 3.89314,
        "status": "working",
        "Date": "01/02/2025",
        "Hour": "00:19:07"
    },
    {
        "id": "urn:ngsi-ld:station:018",
        "type": "BikeHireDockingStation",
        "address": "Nombre d Or",
        "availableBikeNumber": 4,
        "totalSlotNumber": 16,
        "longitude": 43.607859,
        "latitude": 3.886644,
        "status": "working",
        "Date": "01/02/2025",
        "Hour": "00:19:07"
    },
    {
        "id": "urn:ngsi-ld:station:019",
        "type": "BikeHireDockingStation",
        "address": "Louis Blanc",
        "availableBikeNumber": 2,
        "totalSlotNumber": 16,
        "longitude": 43.614642,
        "latitude": 3.877648,
        "status": "working",
        "Date": "01/02/2025",
        "Hour": "00:19:07"
    },
    {
        "id": "urn:ngsi-ld:station:020",
        "type": "BikeHireDockingStation",
        "address": "Gambetta",
        "availableBikeNumber": 8,
        "totalSlotNumber": 8,
        "longitude": 43.607106,
        "latitude": 3.870693,
        "status": "working",
        "Date": "01/02/2025",
        "Hour": "00:19:07"
    },
    {
        "id": "urn:ngsi-ld:station:021",
        "type": "BikeHireDockingStation",
        "address": "Port Marianne",
        "availableBikeNumber": 10,
        "totalSlotNumber": 16,
        "longitude": 43.60032,
        "latitude": 3.89851,
        "status": "working",
        "Date": "01/02/2025",
        "Hour": "00:19:07"
    },
    {
        "id": "urn:ngsi-ld:station:023",
        "type": "BikeHireDockingStation",
        "address": "Les Arceaux",
        "availableBikeNumber": 1,
        "totalSlotNumber": 8,
        "longitude": 43.612659,
        "latitude": 3.867734,
        "status": "working",
        "Date": "01/02/2025",
        "Hour": "00:19:07"
    },
    {
        "id": "urn:ngsi-ld:station:024",
        "type": "BikeHireDockingStation",
        "address": "Cité Mion",
        "availableBikeNumber": 4,
        "totalSlotNumber": 8,
        "longitude": 43.601143,
        "latitude": 3.884373,
        "status": "working",
        "Date": "01/02/2025",
        "Hour": "00:19:07"
    },
    {
        "id": "urn:ngsi-ld:station:025",
        "type": "BikeHireDockingStation",
        "address": "Nouveau Saint-Roch",
        "availableBikeNumber": 3,
        "totalSlotNumber": 8,
        "longitude": 43.599817,
        "latitude": 3.875757,
        "status": "working",
        "Date": "01/02/2025",
        "Hour": "00:19:07"
    },
    {
        "id": "urn:ngsi-ld:station:026",
        "type": "BikeHireDockingStation",
        "address": "Renouvier",
        "availableBikeNumber": 7,
        "totalSlotNumber": 8,
        "longitude": 43.603553,
        "latitude": 3.867884,
        "status": "working",
        "Date": "01/02/2025",
        "Hour": "00:19:07"
    },
    {
        "id": "urn:ngsi-ld:station:027",
        "type": "BikeHireDockingStation",
        "address": "Odysseum",
        "availableBikeNumber": 0,
        "totalSlotNumber": 8,
        "longitude": 43.603727,
        "latitude": 3.918979,
        "status": "working",
        "Date": "01/02/2025",
        "Hour": "00:19:07"
    },
    {
        "id": "urn:ngsi-ld:station:028",
        "type": "BikeHireDockingStation",
        "address": "Saint-Denis",
        "availableBikeNumber": 0,
        "totalSlotNumber": 8,
        "longitude": 43.605021,
        "latitude": 3.875065,
        "status": "working",
        "Date": "01/02/2025",
        "Hour": "00:19:07"
    },
    {
        "id": "urn:ngsi-ld:station:029",
        "type": "BikeHireDockingStation",
        "address": "Richter",
        "availableBikeNumber": 7,
        "totalSlotNumber": 16,
        "longitude": 43.603424,
        "latitude": 3.899263,
        "status": "working",
        "Date": "01/02/2025",
        "Hour": "00:19:07"
    },
    {
        "id": "urn:ngsi-ld:station:030",
        "type": "BikeHireDockingStation",
        "address": "Charles Flahault",
        "availableBikeNumber": 4,
        "totalSlotNumber": 8,
        "longitude": 43.618762,
        "latitude": 3.865971,
        "status": "working",
        "Date": "01/02/2025",
        "Hour": "00:19:07"
    },
    {
        "id": "urn:ngsi-ld:station:031",
        "type": "BikeHireDockingStation",
        "address": "Voltaire",
        "availableBikeNumber": 0,
        "totalSlotNumber": 8,
        "longitude": 43.603767,
        "latitude": 3.888659,
        "status": "working",
        "Date": "01/02/2025",
        "Hour": "00:19:07"
    },
    {
        "id": "urn:ngsi-ld:station:032",
        "type": "BikeHireDockingStation",
        "address": "Prés d Arènes",
        "availableBikeNumber": 8,
        "totalSlotNumber": 8,
        "longitude": 43.59048,
        "latitude": 3.884611,
        "status": "working",
        "Date": "01/02/2025",
        "Hour": "00:19:07"
    },
    {
        "id": "urn:ngsi-ld:station:033",
        "type": "BikeHireDockingStation",
        "address": "Garcia Lorca",
        "availableBikeNumber": 5,
        "totalSlotNumber": 8,
        "longitude": 43.590757,
        "latitude": 3.890616,
        "status": "working",
        "Date": "01/02/2025",
        "Hour": "00:19:07"
    },
    {
        "id": "urn:ngsi-ld:station:034",
        "type": "BikeHireDockingStation",
        "address": "Vert Bois",
        "availableBikeNumber": 11,
        "totalSlotNumber": 16,
        "longitude": 43.635429956,
        "latitude": 3.871179397,
        "status": "working",
        "Date": "01/02/2025",
        "Hour": "00:19:07"
    },
    {
        "id": "urn:ngsi-ld:station:035",
        "type": "BikeHireDockingStation",
        "address": "Malbosc",
        "availableBikeNumber": 0,
        "totalSlotNumber": 8,
        "longitude": 43.633679,
        "latitude": 3.832861,
        "status": "working",
        "Date": "01/02/2025",
        "Hour": "00:19:07"
    },
    {
        "id": "urn:ngsi-ld:station:036",
        "type": "BikeHireDockingStation",
        "address": "Occitanie",
        "availableBikeNumber": 4,
        "totalSlotNumber": 32,
        "longitude": 43.634242,
        "latitude": 3.849128,
        "status": "working",
        "Date": "01/02/2025",
        "Hour": "00:19:07"
    },
    {
        "id": "urn:ngsi-ld:station:037",
        "type": "BikeHireDockingStation",
        "address": "FacdesSciences",
        "availableBikeNumber": 12,
        "totalSlotNumber": 24,
        "longitude": 43.631318,
        "latitude": 3.861299,
        "status": "working",
        "Date": "01/02/2025",
        "Hour": "00:19:07"
    },
    {
        "id": "urn:ngsi-ld:station:038",
        "type": "BikeHireDockingStation",
        "address": "Fac de Lettres",
        "availableBikeNumber": 5,
        "totalSlotNumber": 12,
        "longitude": 43.627799,
        "latitude": 3.869447,
        "status": "working",
        "Date": "01/02/2025",
        "Hour": "00:19:07"
    },
    {
        "id": "urn:ngsi-ld:station:039",
        "type": "BikeHireDockingStation",
        "address": "Aiguelongue",
        "availableBikeNumber": 4,
        "totalSlotNumber": 8,
        "longitude": 43.626163,
        "latitude": 3.882492,
        "status": "working",
        "Date": "01/02/2025",
        "Hour": "00:19:07"
    },
    {
        "id": "urn:ngsi-ld:station:040",
        "type": "BikeHireDockingStation",
        "address": "Jeu de Mail des Abbés",
        "availableBikeNumber": 2,
        "totalSlotNumber": 8,
        "longitude": 43.619701,
        "latitude": 3.883831,
        "status": "working",
        "Date": "01/02/2025",
        "Hour": "00:19:07"
    },
    {
        "id": "urn:ngsi-ld:station:041",
        "type": "BikeHireDockingStation",
        "address": "Euromédecine",
        "availableBikeNumber": 2,
        "totalSlotNumber": 8,
        "longitude": 43.639119,
        "latitude": 3.828199,
        "status": "working",
        "Date": "01/02/2025",
        "Hour": "00:19:07"
    },
    {
        "id": "urn:ngsi-ld:station:042",
        "type": "BikeHireDockingStation",
        "address": "Marie Caizergues",
        "availableBikeNumber": 0,
        "totalSlotNumber": 8,
        "longitude": 43.619871,
        "latitude": 3.873812,
        "status": "working",
        "Date": "01/02/2025",
        "Hour": "00:19:07"
    },
    {
        "id": "urn:ngsi-ld:station:043",
        "type": "BikeHireDockingStation",
        "address": "Sabines",
        "availableBikeNumber": 3,
        "totalSlotNumber": 8,
        "longitude": 43.584211,
        "latitude": 3.860031,
        "status": "working",
        "Date": "01/02/2025",
        "Hour": "00:19:07"
    },
    {
        "id": "urn:ngsi-ld:station:044",
        "type": "BikeHireDockingStation",
        "address": "Celleneuve",
        "availableBikeNumber": 4,
        "totalSlotNumber": 8,
        "longitude": 43.61467,
        "latitude": 3.832624,
        "status": "working",
        "Date": "01/02/2025",
        "Hour": "00:19:07"
    },
    {
        "id": "urn:ngsi-ld:station:045",
        "type": "BikeHireDockingStation",
        "address": "Jardin de la Lironde",
        "availableBikeNumber": 5,
        "totalSlotNumber": 8,
        "longitude": 43.60585,
        "latitude": 3.911576,
        "status": "working",
        "Date": "01/02/2025",
        "Hour": "00:19:07"
    },
    {
        "id": "urn:ngsi-ld:station:046",
        "type": "BikeHireDockingStation",
        "address": "Père Soulas",
        "availableBikeNumber": 6,
        "totalSlotNumber": 8,
        "longitude": 43.621983,
        "latitude": 3.855603,
        "status": "working",
        "Date": "01/02/2025",
        "Hour": "00:19:07"
    },
    {
        "id": "urn:ngsi-ld:station:047",
        "type": "BikeHireDockingStation",
        "address": "Place Viala",
        "availableBikeNumber": 2,
        "totalSlotNumber": 8,
        "longitude": 43.616812,
        "latitude": 3.855075,
        "status": "working",
        "Date": "01/02/2025",
        "Hour": "00:19:07"
    },
    {
        "id": "urn:ngsi-ld:station:048",
        "type": "BikeHireDockingStation",
        "address": "Hôtel du Département",
        "availableBikeNumber": 1,
        "totalSlotNumber": 8,
        "longitude": 43.621682,
        "latitude": 3.83477,
        "status": "working",
        "Date": "01/02/2025",
        "Hour": "00:19:07"
    },
    {
        "id": "urn:ngsi-ld:station:049",
        "type": "BikeHireDockingStation",
        "address": "Tonnelles",
        "availableBikeNumber": 0,
        "totalSlotNumber": 8,
        "longitude": 43.615155,
        "latitude": 3.839466,
        "status": "working",
        "Date": "01/02/2025",
        "Hour": "00:19:07"
    },
    {
        "id": "urn:ngsi-ld:station:050",
        "type": "BikeHireDockingStation",
        "address": "Parvis Jules Ferry - Gare Saint-Roch",
        "availableBikeNumber": 6,
        "totalSlotNumber": 8,
        "longitude": 43.603889,
        "latitude": 3.879362,
        "status": "working",
        "Date": "01/02/2025",
        "Hour": "00:19:07"
    },
    {
        "id": "urn:ngsi-ld:station:051",
        "type": "BikeHireDockingStation",
        "address": "Pont de Lattes - Gare Saint-Roch",
        "availableBikeNumber": 10,
        "totalSlotNumber": 12,
        "longitude": 43.606036,
        "latitude": 3.882393,
        "status": "working",
        "Date": "01/02/2025",
        "Hour": "00:19:07"
    },
    {
        "id": "urn:ngsi-ld:station:053",
        "type": "BikeHireDockingStation",
        "address": "Deux Ponts - Gare Saint-Roch",
        "availableBikeNumber": 0,
        "totalSlotNumber": 8,
        "longitude": 43.604319,
        "latitude": 3.880916,
        "status": "working",
        "Date": "01/02/2025",
        "Hour": "00:19:07"
    },
    {
        "id": "urn:ngsi-ld:station:054",
        "type": "BikeHireDockingStation",
        "address": "Providence - Ovalie",
        "availableBikeNumber": 5,
        "totalSlotNumber": 8,
        "longitude": 43.588239,
        "latitude": 3.853421,
        "status": "working",
        "Date": "01/02/2025",
        "Hour": "00:19:07"
    },
    {
        "id": "urn:ngsi-ld:station:055",
        "type": "BikeHireDockingStation",
        "address": "Pérols Etang de l Or",
        "availableBikeNumber": 38,
        "totalSlotNumber": 68,
        "longitude": 43.558351,
        "latitude": 3.963412,
        "status": "working",
        "Date": "01/02/2025",
        "Hour": "00:19:07"
    },
    {
        "id": "urn:ngsi-ld:station:056",
        "type": "BikeHireDockingStation",
        "address": "Albert 1er - Cathédrale",
        "availableBikeNumber": 7,
        "totalSlotNumber": 12,
        "longitude": 43.614005,
        "latitude": 3.873218,
        "status": "working",
        "Date": "01/02/2025",
        "Hour": "00:19:07"
    },
    {
        "id": "urn:ngsi-ld:station:057",
        "type": "BikeHireDockingStation",
        "address": "Saint-Guilhem - Courreau",
        "availableBikeNumber": 1,
        "totalSlotNumber": 8,
        "longitude": 43.608996,
        "latitude": 3.872752,
        "status": "working",
        "Date": "01/02/2025",
        "Hour": "00:19:07"
    },
    {
        "id": "urn:ngsi-ld:station:059",
        "type": "BikeHireDockingStation",
        "address": "Sud De France",
        "availableBikeNumber": 1,
        "totalSlotNumber": 8,
        "longitude": 43.59562,
        "latitude": 3.9235,
        "status": "working",
        "Date": "01/02/2025",
        "Hour": "00:19:07"
    },
    {
        "id": "urn:ngsi-ld:station:060",
        "type": "BikeHireDockingStation",
        "address": "Comedie Baudin",
        "availableBikeNumber": 7,
        "totalSlotNumber": 9,
        "longitude": 43.608717,
        "latitude": 3.880787,
        "status": "working",
        "Date": "01/02/2025",
        "Hour": "00:19:07"
    },
    {
        "id": "urn:ngsi-ld:station:061",
        "type": "BikeHireDockingStation",
        "address": "Jean de Beins",
        "availableBikeNumber": 8,
        "totalSlotNumber": 16,
        "longitude": 43.609857,
        "latitude": 3.883884,
        "status": "working",
        "Date": "01/02/2025",
        "Hour": "00:19:07"
    },
    {
        "id": "urn:ngsi-ld:station:001",
        "type": "BikeHireDockingStation",
        "address": "Rue Jules Ferry - Gare Saint-Roch",
        "availableBikeNumber": 9,
        "totalSlotNumber": 12,
        "longitude": 43.605366,
        "latitude": 3.881346,
        "status": "working",
        "Date": "01/02/2025",
        "Hour": "00:30:17"
    },
    {
        "id": "urn:ngsi-ld:station:002",
        "type": "BikeHireDockingStation",
        "address": "Comédie",
        "availableBikeNumber": 4,
        "totalSlotNumber": 20,
        "longitude": 43.608148,
        "latitude": 3.878778,
        "status": "working",
        "Date": "01/02/2025",
        "Hour": "00:30:17"
    },
    {
        "id": "urn:ngsi-ld:station:004",
        "type": "BikeHireDockingStation",
        "address": "Hôtel de Ville",
        "availableBikeNumber": 9,
        "totalSlotNumber": 16,
        "longitude": 43.599088,
        "latitude": 3.894866,
        "status": "working",
        "Date": "01/02/2025",
        "Hour": "00:30:17"
    },
    {
        "id": "urn:ngsi-ld:station:005",
        "type": "BikeHireDockingStation",
        "address": "Corum",
        "availableBikeNumber": 5,
        "totalSlotNumber": 12,
        "longitude": 43.613989,
        "latitude": 3.8816,
        "status": "working",
        "Date": "01/02/2025",
        "Hour": "00:30:17"
    },
    {
        "id": "urn:ngsi-ld:station:006",
        "type": "BikeHireDockingStation",
        "address": "Place Albert 1er - St Charles",
        "availableBikeNumber": 22,
        "totalSlotNumber": 27,
        "longitude": 43.616768,
        "latitude": 3.873375,
        "status": "working",
        "Date": "01/02/2025",
        "Hour": "00:30:17"
    },
    {
        "id": "urn:ngsi-ld:station:007",
        "type": "BikeHireDockingStation",
        "address": "Foch",
        "availableBikeNumber": 0,
        "totalSlotNumber": 8,
        "longitude": 43.610989,
        "latitude": 3.873345,
        "status": "working",
        "Date": "01/02/2025",
        "Hour": "00:30:17"
    },
    {
        "id": "urn:ngsi-ld:station:008",
        "type": "BikeHireDockingStation",
        "address": "Halles Castellane",
        "availableBikeNumber": 2,
        "totalSlotNumber": 12,
        "longitude": 43.609935,
        "latitude": 3.877208,
        "status": "working",
        "Date": "01/02/2025",
        "Hour": "00:30:17"
    },
    {
        "id": "urn:ngsi-ld:station:009",
        "type": "BikeHireDockingStation",
        "address": "Observatoire",
        "availableBikeNumber": 6,
        "totalSlotNumber": 8,
        "longitude": 43.606301,
        "latitude": 3.87724,
        "status": "working",
        "Date": "01/02/2025",
        "Hour": "00:30:17"
    },
    {
        "id": "urn:ngsi-ld:station:010",
        "type": "BikeHireDockingStation",
        "address": "Rondelet",
        "availableBikeNumber": 6,
        "totalSlotNumber": 16,
        "longitude": 43.603038,
        "latitude": 3.875796,
        "status": "working",
        "Date": "01/02/2025",
        "Hour": "00:30:17"
    },
    {
        "id": "urn:ngsi-ld:station:011",
        "type": "BikeHireDockingStation",
        "address": "Plan Cabanes",
        "availableBikeNumber": 5,
        "totalSlotNumber": 12,
        "longitude": 43.608491,
        "latitude": 3.868389,
        "status": "working",
        "Date": "01/02/2025",
        "Hour": "00:30:17"
    },
    {
        "id": "urn:ngsi-ld:station:012",
        "type": "BikeHireDockingStation",
        "address": "Boutonnet",
        "availableBikeNumber": 4,
        "totalSlotNumber": 12,
        "longitude": 43.622629,
        "latitude": 3.868375,
        "status": "working",
        "Date": "01/02/2025",
        "Hour": "00:30:17"
    },
    {
        "id": "urn:ngsi-ld:station:013",
        "type": "BikeHireDockingStation",
        "address": "Emile Combes",
        "availableBikeNumber": 6,
        "totalSlotNumber": 8,
        "longitude": 43.616742,
        "latitude": 3.87998,
        "status": "working",
        "Date": "01/02/2025",
        "Hour": "00:30:17"
    },
    {
        "id": "urn:ngsi-ld:station:014",
        "type": "BikeHireDockingStation",
        "address": "Beaux-Arts",
        "availableBikeNumber": 9,
        "totalSlotNumber": 16,
        "longitude": 43.616698,
        "latitude": 3.884981,
        "status": "working",
        "Date": "01/02/2025",
        "Hour": "00:30:17"
    },
    {
        "id": "urn:ngsi-ld:station:015",
        "type": "BikeHireDockingStation",
        "address": "Les Aubes",
        "availableBikeNumber": 4,
        "totalSlotNumber": 8,
        "longitude": 43.618692,
        "latitude": 3.893844,
        "status": "working",
        "Date": "01/02/2025",
        "Hour": "00:30:17"
    },
    {
        "id": "urn:ngsi-ld:station:016",
        "type": "BikeHireDockingStation",
        "address": "Antigone centre",
        "availableBikeNumber": 10,
        "totalSlotNumber": 12,
        "longitude": 43.607942,
        "latitude": 3.890634,
        "status": "working",
        "Date": "01/02/2025",
        "Hour": "00:30:17"
    },
    {
        "id": "urn:ngsi-ld:station:017",
        "type": "BikeHireDockingStation",
        "address": "Médiathèque Emile Zola",
        "availableBikeNumber": 1,
        "totalSlotNumber": 16,
        "longitude": 43.608218,
        "latitude": 3.89314,
        "status": "working",
        "Date": "01/02/2025",
        "Hour": "00:30:17"
    },
    {
        "id": "urn:ngsi-ld:station:018",
        "type": "BikeHireDockingStation",
        "address": "Nombre d Or",
        "availableBikeNumber": 4,
        "totalSlotNumber": 16,
        "longitude": 43.607859,
        "latitude": 3.886644,
        "status": "working",
        "Date": "01/02/2025",
        "Hour": "00:30:17"
    },
    {
        "id": "urn:ngsi-ld:station:019",
        "type": "BikeHireDockingStation",
        "address": "Louis Blanc",
        "availableBikeNumber": 2,
        "totalSlotNumber": 16,
        "longitude": 43.614642,
        "latitude": 3.877648,
        "status": "working",
        "Date": "01/02/2025",
        "Hour": "00:30:17"
    },
    {
        "id": "urn:ngsi-ld:station:020",
        "type": "BikeHireDockingStation",
        "address": "Gambetta",
        "availableBikeNumber": 8,
        "totalSlotNumber": 8,
        "longitude": 43.607106,
        "latitude": 3.870693,
        "status": "working",
        "Date": "01/02/2025",
        "Hour": "00:30:17"
    },
    {
        "id": "urn:ngsi-ld:station:021",
        "type": "BikeHireDockingStation",
        "address": "Port Marianne",
        "availableBikeNumber": 10,
        "totalSlotNumber": 16,
        "longitude": 43.60032,
        "latitude": 3.89851,
        "status": "working",
        "Date": "01/02/2025",
        "Hour": "00:30:17"
    },
    {
        "id": "urn:ngsi-ld:station:023",
        "type": "BikeHireDockingStation",
        "address": "Les Arceaux",
        "availableBikeNumber": 1,
        "totalSlotNumber": 8,
        "longitude": 43.612659,
        "latitude": 3.867734,
        "status": "working",
        "Date": "01/02/2025",
        "Hour": "00:30:17"
    },
    {
        "id": "urn:ngsi-ld:station:024",
        "type": "BikeHireDockingStation",
        "address": "Cité Mion",
        "availableBikeNumber": 5,
        "totalSlotNumber": 8,
        "longitude": 43.601143,
        "latitude": 3.884373,
        "status": "working",
        "Date": "01/02/2025",
        "Hour": "00:30:17"
    },
    {
        "id": "urn:ngsi-ld:station:025",
        "type": "BikeHireDockingStation",
        "address": "Nouveau Saint-Roch",
        "availableBikeNumber": 3,
        "totalSlotNumber": 8,
        "longitude": 43.599817,
        "latitude": 3.875757,
        "status": "working",
        "Date": "01/02/2025",
        "Hour": "00:30:17"
    },
    {
        "id": "urn:ngsi-ld:station:026",
        "type": "BikeHireDockingStation",
        "address": "Renouvier",
        "availableBikeNumber": 7,
        "totalSlotNumber": 8,
        "longitude": 43.603553,
        "latitude": 3.867884,
        "status": "working",
        "Date": "01/02/2025",
        "Hour": "00:30:17"
    },
    {
        "id": "urn:ngsi-ld:station:027",
        "type": "BikeHireDockingStation",
        "address": "Odysseum",
        "availableBikeNumber": 0,
        "totalSlotNumber": 8,
        "longitude": 43.603727,
        "latitude": 3.918979,
        "status": "working",
        "Date": "01/02/2025",
        "Hour": "00:30:17"
    },
    {
        "id": "urn:ngsi-ld:station:028",
        "type": "BikeHireDockingStation",
        "address": "Saint-Denis",
        "availableBikeNumber": 0,
        "totalSlotNumber": 8,
        "longitude": 43.605021,
        "latitude": 3.875065,
        "status": "working",
        "Date": "01/02/2025",
        "Hour": "00:30:17"
    },
    {
        "id": "urn:ngsi-ld:station:029",
        "type": "BikeHireDockingStation",
        "address": "Richter",
        "availableBikeNumber": 7,
        "totalSlotNumber": 16,
        "longitude": 43.603424,
        "latitude": 3.899263,
        "status": "working",
        "Date": "01/02/2025",
        "Hour": "00:30:17"
    },
    {
        "id": "urn:ngsi-ld:station:030",
        "type": "BikeHireDockingStation",
        "address": "Charles Flahault",
        "availableBikeNumber": 4,
        "totalSlotNumber": 8,
        "longitude": 43.618762,
        "latitude": 3.865971,
        "status": "working",
        "Date": "01/02/2025",
        "Hour": "00:30:17"
    },
    {
        "id": "urn:ngsi-ld:station:031",
        "type": "BikeHireDockingStation",
        "address": "Voltaire",
        "availableBikeNumber": 0,
        "totalSlotNumber": 8,
        "longitude": 43.603767,
        "latitude": 3.888659,
        "status": "working",
        "Date": "01/02/2025",
        "Hour": "00:30:17"
    },
    {
        "id": "urn:ngsi-ld:station:032",
        "type": "BikeHireDockingStation",
        "address": "Prés d Arènes",
        "availableBikeNumber": 8,
        "totalSlotNumber": 8,
        "longitude": 43.59048,
        "latitude": 3.884611,
        "status": "working",
        "Date": "01/02/2025",
        "Hour": "00:30:17"
    },
    {
        "id": "urn:ngsi-ld:station:033",
        "type": "BikeHireDockingStation",
        "address": "Garcia Lorca",
        "availableBikeNumber": 5,
        "totalSlotNumber": 8,
        "longitude": 43.590757,
        "latitude": 3.890616,
        "status": "working",
        "Date": "01/02/2025",
        "Hour": "00:30:17"
    },
    {
        "id": "urn:ngsi-ld:station:034",
        "type": "BikeHireDockingStation",
        "address": "Vert Bois",
        "availableBikeNumber": 11,
        "totalSlotNumber": 16,
        "longitude": 43.635429956,
        "latitude": 3.871179397,
        "status": "working",
        "Date": "01/02/2025",
        "Hour": "00:30:17"
    },
    {
        "id": "urn:ngsi-ld:station:035",
        "type": "BikeHireDockingStation",
        "address": "Malbosc",
        "availableBikeNumber": 0,
        "totalSlotNumber": 8,
        "longitude": 43.633679,
        "latitude": 3.832861,
        "status": "working",
        "Date": "01/02/2025",
        "Hour": "00:30:17"
    },
    {
        "id": "urn:ngsi-ld:station:036",
        "type": "BikeHireDockingStation",
        "address": "Occitanie",
        "availableBikeNumber": 4,
        "totalSlotNumber": 32,
        "longitude": 43.634242,
        "latitude": 3.849128,
        "status": "working",
        "Date": "01/02/2025",
        "Hour": "00:30:17"
    },
    {
        "id": "urn:ngsi-ld:station:037",
        "type": "BikeHireDockingStation",
        "address": "FacdesSciences",
        "availableBikeNumber": 12,
        "totalSlotNumber": 24,
        "longitude": 43.631318,
        "latitude": 3.861299,
        "status": "working",
        "Date": "01/02/2025",
        "Hour": "00:30:17"
    },
    {
        "id": "urn:ngsi-ld:station:038",
        "type": "BikeHireDockingStation",
        "address": "Fac de Lettres",
        "availableBikeNumber": 5,
        "totalSlotNumber": 12,
        "longitude": 43.627799,
        "latitude": 3.869447,
        "status": "working",
        "Date": "01/02/2025",
        "Hour": "00:30:17"
    },
    {
        "id": "urn:ngsi-ld:station:039",
        "type": "BikeHireDockingStation",
        "address": "Aiguelongue",
        "availableBikeNumber": 4,
        "totalSlotNumber": 8,
        "longitude": 43.626163,
        "latitude": 3.882492,
        "status": "working",
        "Date": "01/02/2025",
        "Hour": "00:30:17"
    },
    {
        "id": "urn:ngsi-ld:station:040",
        "type": "BikeHireDockingStation",
        "address": "Jeu de Mail des Abbés",
        "availableBikeNumber": 2,
        "totalSlotNumber": 8,
        "longitude": 43.619701,
        "latitude": 3.883831,
        "status": "working",
        "Date": "01/02/2025",
        "Hour": "00:30:17"
    },
    {
        "id": "urn:ngsi-ld:station:041",
        "type": "BikeHireDockingStation",
        "address": "Euromédecine",
        "availableBikeNumber": 2,
        "totalSlotNumber": 8,
        "longitude": 43.639119,
        "latitude": 3.828199,
        "status": "working",
        "Date": "01/02/2025",
        "Hour": "00:30:17"
    },
    {
        "id": "urn:ngsi-ld:station:042",
        "type": "BikeHireDockingStation",
        "address": "Marie Caizergues",
        "availableBikeNumber": 0,
        "totalSlotNumber": 8,
        "longitude": 43.619871,
        "latitude": 3.873812,
        "status": "working",
        "Date": "01/02/2025",
        "Hour": "00:30:17"
    },
    {
        "id": "urn:ngsi-ld:station:043",
        "type": "BikeHireDockingStation",
        "address": "Sabines",
        "availableBikeNumber": 3,
        "totalSlotNumber": 8,
        "longitude": 43.584211,
        "latitude": 3.860031,
        "status": "working",
        "Date": "01/02/2025",
        "Hour": "00:30:17"
    },
    {
        "id": "urn:ngsi-ld:station:044",
        "type": "BikeHireDockingStation",
        "address": "Celleneuve",
        "availableBikeNumber": 4,
        "totalSlotNumber": 8,
        "longitude": 43.61467,
        "latitude": 3.832624,
        "status": "working",
        "Date": "01/02/2025",
        "Hour": "00:30:17"
    },
    {
        "id": "urn:ngsi-ld:station:045",
        "type": "BikeHireDockingStation",
        "address": "Jardin de la Lironde",
        "availableBikeNumber": 5,
        "totalSlotNumber": 8,
        "longitude": 43.60585,
        "latitude": 3.911576,
        "status": "working",
        "Date": "01/02/2025",
        "Hour": "00:30:17"
    },
    {
        "id": "urn:ngsi-ld:station:046",
        "type": "BikeHireDockingStation",
        "address": "Père Soulas",
        "availableBikeNumber": 6,
        "totalSlotNumber": 8,
        "longitude": 43.621983,
        "latitude": 3.855603,
        "status": "working",
        "Date": "01/02/2025",
        "Hour": "00:30:17"
    },
    {
        "id": "urn:ngsi-ld:station:047",
        "type": "BikeHireDockingStation",
        "address": "Place Viala",
        "availableBikeNumber": 3,
        "totalSlotNumber": 8,
        "longitude": 43.616812,
        "latitude": 3.855075,
        "status": "working",
        "Date": "01/02/2025",
        "Hour": "00:30:17"
    },
    {
        "id": "urn:ngsi-ld:station:048",
        "type": "BikeHireDockingStation",
        "address": "Hôtel du Département",
        "availableBikeNumber": 2,
        "totalSlotNumber": 8,
        "longitude": 43.621682,
        "latitude": 3.83477,
        "status": "working",
        "Date": "01/02/2025",
        "Hour": "00:30:17"
    },
    {
        "id": "urn:ngsi-ld:station:049",
        "type": "BikeHireDockingStation",
        "address": "Tonnelles",
        "availableBikeNumber": 1,
        "totalSlotNumber": 8,
        "longitude": 43.615155,
        "latitude": 3.839466,
        "status": "working",
        "Date": "01/02/2025",
        "Hour": "00:30:17"
    },
    {
        "id": "urn:ngsi-ld:station:050",
        "type": "BikeHireDockingStation",
        "address": "Parvis Jules Ferry - Gare Saint-Roch",
        "availableBikeNumber": 5,
        "totalSlotNumber": 8,
        "longitude": 43.603889,
        "latitude": 3.879362,
        "status": "working",
        "Date": "01/02/2025",
        "Hour": "00:30:17"
    },
    {
        "id": "urn:ngsi-ld:station:051",
        "type": "BikeHireDockingStation",
        "address": "Pont de Lattes - Gare Saint-Roch",
        "availableBikeNumber": 10,
        "totalSlotNumber": 12,
        "longitude": 43.606036,
        "latitude": 3.882393,
        "status": "working",
        "Date": "01/02/2025",
        "Hour": "00:30:17"
    },
    {
        "id": "urn:ngsi-ld:station:053",
        "type": "BikeHireDockingStation",
        "address": "Deux Ponts - Gare Saint-Roch",
        "availableBikeNumber": 0,
        "totalSlotNumber": 8,
        "longitude": 43.604319,
        "latitude": 3.880916,
        "status": "working",
        "Date": "01/02/2025",
        "Hour": "00:30:17"
    },
    {
        "id": "urn:ngsi-ld:station:054",
        "type": "BikeHireDockingStation",
        "address": "Providence - Ovalie",
        "availableBikeNumber": 5,
        "totalSlotNumber": 8,
        "longitude": 43.588239,
        "latitude": 3.853421,
        "status": "working",
        "Date": "01/02/2025",
        "Hour": "00:30:17"
    },
    {
        "id": "urn:ngsi-ld:station:055",
        "type": "BikeHireDockingStation",
        "address": "Pérols Etang de l Or",
        "availableBikeNumber": 40,
        "totalSlotNumber": 68,
        "longitude": 43.558351,
        "latitude": 3.963412,
        "status": "working",
        "Date": "01/02/2025",
        "Hour": "00:30:17"
    },
    {
        "id": "urn:ngsi-ld:station:056",
        "type": "BikeHireDockingStation",
        "address": "Albert 1er - Cathédrale",
        "availableBikeNumber": 7,
        "totalSlotNumber": 12,
        "longitude": 43.614005,
        "latitude": 3.873218,
        "status": "working",
        "Date": "01/02/2025",
        "Hour": "00:30:17"
    },
    {
        "id": "urn:ngsi-ld:station:057",
        "type": "BikeHireDockingStation",
        "address": "Saint-Guilhem - Courreau",
        "availableBikeNumber": 1,
        "totalSlotNumber": 8,
        "longitude": 43.608996,
        "latitude": 3.872752,
        "status": "working",
        "Date": "01/02/2025",
        "Hour": "00:30:17"
    },
    {
        "id": "urn:ngsi-ld:station:059",
        "type": "BikeHireDockingStation",
        "address": "Sud De France",
        "availableBikeNumber": 1,
        "totalSlotNumber": 8,
        "longitude": 43.59562,
        "latitude": 3.9235,
        "status": "working",
        "Date": "01/02/2025",
        "Hour": "00:30:17"
    },
    {
        "id": "urn:ngsi-ld:station:060",
        "type": "BikeHireDockingStation",
        "address": "Comedie Baudin",
        "availableBikeNumber": 7,
        "totalSlotNumber": 9,
        "longitude": 43.608717,
        "latitude": 3.880787,
        "status": "working",
        "Date": "01/02/2025",
        "Hour": "00:30:17"
    },
    {
        "id": "urn:ngsi-ld:station:061",
        "type": "BikeHireDockingStation",
        "address": "Jean de Beins",
        "availableBikeNumber": 8,
        "totalSlotNumber": 16,
        "longitude": 43.609857,
        "latitude": 3.883884,
        "status": "working",
        "Date": "01/02/2025",
        "Hour": "00:30:17"
    },
    {
        "id": "urn:ngsi-ld:station:001",
        "type": "BikeHireDockingStation",
        "address": "Rue Jules Ferry - Gare Saint-Roch",
        "availableBikeNumber": 9,
        "totalSlotNumber": 12,
        "longitude": 43.605366,
        "latitude": 3.881346,
        "status": "working",
        "Date": "01/02/2025",
        "Hour": "00:41:27"
    },
    {
        "id": "urn:ngsi-ld:station:002",
        "type": "BikeHireDockingStation",
        "address": "Comédie",
        "availableBikeNumber": 4,
        "totalSlotNumber": 20,
        "longitude": 43.608148,
        "latitude": 3.878778,
        "status": "working",
        "Date": "01/02/2025",
        "Hour": "00:41:27"
    },
    {
        "id": "urn:ngsi-ld:station:004",
        "type": "BikeHireDockingStation",
        "address": "Hôtel de Ville",
        "availableBikeNumber": 9,
        "totalSlotNumber": 16,
        "longitude": 43.599088,
        "latitude": 3.894866,
        "status": "working",
        "Date": "01/02/2025",
        "Hour": "00:41:27"
    },
    {
        "id": "urn:ngsi-ld:station:005",
        "type": "BikeHireDockingStation",
        "address": "Corum",
        "availableBikeNumber": 5,
        "totalSlotNumber": 12,
        "longitude": 43.613989,
        "latitude": 3.8816,
        "status": "working",
        "Date": "01/02/2025",
        "Hour": "00:41:27"
    },
    {
        "id": "urn:ngsi-ld:station:006",
        "type": "BikeHireDockingStation",
        "address": "Place Albert 1er - St Charles",
        "availableBikeNumber": 22,
        "totalSlotNumber": 27,
        "longitude": 43.616768,
        "latitude": 3.873375,
        "status": "working",
        "Date": "01/02/2025",
        "Hour": "00:41:27"
    },
    {
        "id": "urn:ngsi-ld:station:007",
        "type": "BikeHireDockingStation",
        "address": "Foch",
        "availableBikeNumber": 0,
        "totalSlotNumber": 8,
        "longitude": 43.610989,
        "latitude": 3.873345,
        "status": "working",
        "Date": "01/02/2025",
        "Hour": "00:41:27"
    },
    {
        "id": "urn:ngsi-ld:station:008",
        "type": "BikeHireDockingStation",
        "address": "Halles Castellane",
        "availableBikeNumber": 2,
        "totalSlotNumber": 12,
        "longitude": 43.609935,
        "latitude": 3.877208,
        "status": "working",
        "Date": "01/02/2025",
        "Hour": "00:41:27"
    },
    {
        "id": "urn:ngsi-ld:station:009",
        "type": "BikeHireDockingStation",
        "address": "Observatoire",
        "availableBikeNumber": 6,
        "totalSlotNumber": 8,
        "longitude": 43.606301,
        "latitude": 3.87724,
        "status": "working",
        "Date": "01/02/2025",
        "Hour": "00:41:27"
    },
    {
        "id": "urn:ngsi-ld:station:010",
        "type": "BikeHireDockingStation",
        "address": "Rondelet",
        "availableBikeNumber": 6,
        "totalSlotNumber": 16,
        "longitude": 43.603038,
        "latitude": 3.875796,
        "status": "working",
        "Date": "01/02/2025",
        "Hour": "00:41:27"
    },
    {
        "id": "urn:ngsi-ld:station:011",
        "type": "BikeHireDockingStation",
        "address": "Plan Cabanes",
        "availableBikeNumber": 5,
        "totalSlotNumber": 12,
        "longitude": 43.608491,
        "latitude": 3.868389,
        "status": "working",
        "Date": "01/02/2025",
        "Hour": "00:41:27"
    },
    {
        "id": "urn:ngsi-ld:station:012",
        "type": "BikeHireDockingStation",
        "address": "Boutonnet",
        "availableBikeNumber": 3,
        "totalSlotNumber": 12,
        "longitude": 43.622629,
        "latitude": 3.868375,
        "status": "working",
        "Date": "01/02/2025",
        "Hour": "00:41:27"
    },
    {
        "id": "urn:ngsi-ld:station:013",
        "type": "BikeHireDockingStation",
        "address": "Emile Combes",
        "availableBikeNumber": 6,
        "totalSlotNumber": 8,
        "longitude": 43.616742,
        "latitude": 3.87998,
        "status": "working",
        "Date": "01/02/2025",
        "Hour": "00:41:27"
    },
    {
        "id": "urn:ngsi-ld:station:014",
        "type": "BikeHireDockingStation",
        "address": "Beaux-Arts",
        "availableBikeNumber": 9,
        "totalSlotNumber": 16,
        "longitude": 43.616698,
        "latitude": 3.884981,
        "status": "working",
        "Date": "01/02/2025",
        "Hour": "00:41:27"
    },
    {
        "id": "urn:ngsi-ld:station:015",
        "type": "BikeHireDockingStation",
        "address": "Les Aubes",
        "availableBikeNumber": 4,
        "totalSlotNumber": 8,
        "longitude": 43.618692,
        "latitude": 3.893844,
        "status": "working",
        "Date": "01/02/2025",
        "Hour": "00:41:27"
    },
    {
        "id": "urn:ngsi-ld:station:016",
        "type": "BikeHireDockingStation",
        "address": "Antigone centre",
        "availableBikeNumber": 10,
        "totalSlotNumber": 12,
        "longitude": 43.607942,
        "latitude": 3.890634,
        "status": "working",
        "Date": "01/02/2025",
        "Hour": "00:41:27"
    },
    {
        "id": "urn:ngsi-ld:station:017",
        "type": "BikeHireDockingStation",
        "address": "Médiathèque Emile Zola",
        "availableBikeNumber": 1,
        "totalSlotNumber": 16,
        "longitude": 43.608218,
        "latitude": 3.89314,
        "status": "working",
        "Date": "01/02/2025",
        "Hour": "00:41:27"
    },
    {
        "id": "urn:ngsi-ld:station:018",
        "type": "BikeHireDockingStation",
        "address": "Nombre d Or",
        "availableBikeNumber": 4,
        "totalSlotNumber": 16,
        "longitude": 43.607859,
        "latitude": 3.886644,
        "status": "working",
        "Date": "01/02/2025",
        "Hour": "00:41:27"
    },
    {
        "id": "urn:ngsi-ld:station:019",
        "type": "BikeHireDockingStation",
        "address": "Louis Blanc",
        "availableBikeNumber": 2,
        "totalSlotNumber": 16,
        "longitude": 43.614642,
        "latitude": 3.877648,
        "status": "working",
        "Date": "01/02/2025",
        "Hour": "00:41:27"
    },
    {
        "id": "urn:ngsi-ld:station:020",
        "type": "BikeHireDockingStation",
        "address": "Gambetta",
        "availableBikeNumber": 8,
        "totalSlotNumber": 8,
        "longitude": 43.607106,
        "latitude": 3.870693,
        "status": "working",
        "Date": "01/02/2025",
        "Hour": "00:41:27"
    },
    {
        "id": "urn:ngsi-ld:station:021",
        "type": "BikeHireDockingStation",
        "address": "Port Marianne",
        "availableBikeNumber": 10,
        "totalSlotNumber": 16,
        "longitude": 43.60032,
        "latitude": 3.89851,
        "status": "working",
        "Date": "01/02/2025",
        "Hour": "00:41:27"
    },
    {
        "id": "urn:ngsi-ld:station:023",
        "type": "BikeHireDockingStation",
        "address": "Les Arceaux",
        "availableBikeNumber": 1,
        "totalSlotNumber": 8,
        "longitude": 43.612659,
        "latitude": 3.867734,
        "status": "working",
        "Date": "01/02/2025",
        "Hour": "00:41:27"
    },
    {
        "id": "urn:ngsi-ld:station:024",
        "type": "BikeHireDockingStation",
        "address": "Cité Mion",
        "availableBikeNumber": 5,
        "totalSlotNumber": 8,
        "longitude": 43.601143,
        "latitude": 3.884373,
        "status": "working",
        "Date": "01/02/2025",
        "Hour": "00:41:27"
    },
    {
        "id": "urn:ngsi-ld:station:025",
        "type": "BikeHireDockingStation",
        "address": "Nouveau Saint-Roch",
        "availableBikeNumber": 3,
        "totalSlotNumber": 8,
        "longitude": 43.599817,
        "latitude": 3.875757,
        "status": "working",
        "Date": "01/02/2025",
        "Hour": "00:41:27"
    },
    {
        "id": "urn:ngsi-ld:station:026",
        "type": "BikeHireDockingStation",
        "address": "Renouvier",
        "availableBikeNumber": 7,
        "totalSlotNumber": 8,
        "longitude": 43.603553,
        "latitude": 3.867884,
        "status": "working",
        "Date": "01/02/2025",
        "Hour": "00:41:27"
    },
    {
        "id": "urn:ngsi-ld:station:027",
        "type": "BikeHireDockingStation",
        "address": "Odysseum",
        "availableBikeNumber": 0,
        "totalSlotNumber": 8,
        "longitude": 43.603727,
        "latitude": 3.918979,
        "status": "working",
        "Date": "01/02/2025",
        "Hour": "00:41:27"
    },
    {
        "id": "urn:ngsi-ld:station:028",
        "type": "BikeHireDockingStation",
        "address": "Saint-Denis",
        "availableBikeNumber": 0,
        "totalSlotNumber": 8,
        "longitude": 43.605021,
        "latitude": 3.875065,
        "status": "working",
        "Date": "01/02/2025",
        "Hour": "00:41:27"
    },
    {
        "id": "urn:ngsi-ld:station:029",
        "type": "BikeHireDockingStation",
        "address": "Richter",
        "availableBikeNumber": 7,
        "totalSlotNumber": 16,
        "longitude": 43.603424,
        "latitude": 3.899263,
        "status": "working",
        "Date": "01/02/2025",
        "Hour": "00:41:27"
    },
    {
        "id": "urn:ngsi-ld:station:030",
        "type": "BikeHireDockingStation",
        "address": "Charles Flahault",
        "availableBikeNumber": 4,
        "totalSlotNumber": 8,
        "longitude": 43.618762,
        "latitude": 3.865971,
        "status": "working",
        "Date": "01/02/2025",
        "Hour": "00:41:27"
    },
    {
        "id": "urn:ngsi-ld:station:031",
        "type": "BikeHireDockingStation",
        "address": "Voltaire",
        "availableBikeNumber": 0,
        "totalSlotNumber": 8,
        "longitude": 43.603767,
        "latitude": 3.888659,
        "status": "working",
        "Date": "01/02/2025",
        "Hour": "00:41:27"
    },
    {
        "id": "urn:ngsi-ld:station:032",
        "type": "BikeHireDockingStation",
        "address": "Prés d Arènes",
        "availableBikeNumber": 8,
        "totalSlotNumber": 8,
        "longitude": 43.59048,
        "latitude": 3.884611,
        "status": "working",
        "Date": "01/02/2025",
        "Hour": "00:41:27"
    },
    {
        "id": "urn:ngsi-ld:station:033",
        "type": "BikeHireDockingStation",
        "address": "Garcia Lorca",
        "availableBikeNumber": 5,
        "totalSlotNumber": 8,
        "longitude": 43.590757,
        "latitude": 3.890616,
        "status": "working",
        "Date": "01/02/2025",
        "Hour": "00:41:27"
    },
    {
        "id": "urn:ngsi-ld:station:034",
        "type": "BikeHireDockingStation",
        "address": "Vert Bois",
        "availableBikeNumber": 11,
        "totalSlotNumber": 16,
        "longitude": 43.635429956,
        "latitude": 3.871179397,
        "status": "working",
        "Date": "01/02/2025",
        "Hour": "00:41:27"
    },
    {
        "id": "urn:ngsi-ld:station:035",
        "type": "BikeHireDockingStation",
        "address": "Malbosc",
        "availableBikeNumber": 0,
        "totalSlotNumber": 8,
        "longitude": 43.633679,
        "latitude": 3.832861,
        "status": "working",
        "Date": "01/02/2025",
        "Hour": "00:41:27"
    },
    {
        "id": "urn:ngsi-ld:station:036",
        "type": "BikeHireDockingStation",
        "address": "Occitanie",
        "availableBikeNumber": 4,
        "totalSlotNumber": 32,
        "longitude": 43.634242,
        "latitude": 3.849128,
        "status": "working",
        "Date": "01/02/2025",
        "Hour": "00:41:27"
    },
    {
        "id": "urn:ngsi-ld:station:037",
        "type": "BikeHireDockingStation",
        "address": "FacdesSciences",
        "availableBikeNumber": 12,
        "totalSlotNumber": 24,
        "longitude": 43.631318,
        "latitude": 3.861299,
        "status": "working",
        "Date": "01/02/2025",
        "Hour": "00:41:27"
    },
    {
        "id": "urn:ngsi-ld:station:038",
        "type": "BikeHireDockingStation",
        "address": "Fac de Lettres",
        "availableBikeNumber": 5,
        "totalSlotNumber": 12,
        "longitude": 43.627799,
        "latitude": 3.869447,
        "status": "working",
        "Date": "01/02/2025",
        "Hour": "00:41:27"
    },
    {
        "id": "urn:ngsi-ld:station:039",
        "type": "BikeHireDockingStation",
        "address": "Aiguelongue",
        "availableBikeNumber": 4,
        "totalSlotNumber": 8,
        "longitude": 43.626163,
        "latitude": 3.882492,
        "status": "working",
        "Date": "01/02/2025",
        "Hour": "00:41:27"
    },
    {
        "id": "urn:ngsi-ld:station:040",
        "type": "BikeHireDockingStation",
        "address": "Jeu de Mail des Abbés",
        "availableBikeNumber": 2,
        "totalSlotNumber": 8,
        "longitude": 43.619701,
        "latitude": 3.883831,
        "status": "working",
        "Date": "01/02/2025",
        "Hour": "00:41:27"
    },
    {
        "id": "urn:ngsi-ld:station:041",
        "type": "BikeHireDockingStation",
        "address": "Euromédecine",
        "availableBikeNumber": 2,
        "totalSlotNumber": 8,
        "longitude": 43.639119,
        "latitude": 3.828199,
        "status": "working",
        "Date": "01/02/2025",
        "Hour": "00:41:27"
    },
    {
        "id": "urn:ngsi-ld:station:042",
        "type": "BikeHireDockingStation",
        "address": "Marie Caizergues",
        "availableBikeNumber": 0,
        "totalSlotNumber": 8,
        "longitude": 43.619871,
        "latitude": 3.873812,
        "status": "working",
        "Date": "01/02/2025",
        "Hour": "00:41:27"
    },
    {
        "id": "urn:ngsi-ld:station:043",
        "type": "BikeHireDockingStation",
        "address": "Sabines",
        "availableBikeNumber": 3,
        "totalSlotNumber": 8,
        "longitude": 43.584211,
        "latitude": 3.860031,
        "status": "working",
        "Date": "01/02/2025",
        "Hour": "00:41:27"
    },
    {
        "id": "urn:ngsi-ld:station:044",
        "type": "BikeHireDockingStation",
        "address": "Celleneuve",
        "availableBikeNumber": 4,
        "totalSlotNumber": 8,
        "longitude": 43.61467,
        "latitude": 3.832624,
        "status": "working",
        "Date": "01/02/2025",
        "Hour": "00:41:27"
    },
    {
        "id": "urn:ngsi-ld:station:045",
        "type": "BikeHireDockingStation",
        "address": "Jardin de la Lironde",
        "availableBikeNumber": 5,
        "totalSlotNumber": 8,
        "longitude": 43.60585,
        "latitude": 3.911576,
        "status": "working",
        "Date": "01/02/2025",
        "Hour": "00:41:27"
    },
    {
        "id": "urn:ngsi-ld:station:046",
        "type": "BikeHireDockingStation",
        "address": "Père Soulas",
        "availableBikeNumber": 6,
        "totalSlotNumber": 8,
        "longitude": 43.621983,
        "latitude": 3.855603,
        "status": "working",
        "Date": "01/02/2025",
        "Hour": "00:41:27"
    },
    {
        "id": "urn:ngsi-ld:station:047",
        "type": "BikeHireDockingStation",
        "address": "Place Viala",
        "availableBikeNumber": 3,
        "totalSlotNumber": 8,
        "longitude": 43.616812,
        "latitude": 3.855075,
        "status": "working",
        "Date": "01/02/2025",
        "Hour": "00:41:27"
    },
    {
        "id": "urn:ngsi-ld:station:048",
        "type": "BikeHireDockingStation",
        "address": "Hôtel du Département",
        "availableBikeNumber": 2,
        "totalSlotNumber": 8,
        "longitude": 43.621682,
        "latitude": 3.83477,
        "status": "working",
        "Date": "01/02/2025",
        "Hour": "00:41:27"
    },
    {
        "id": "urn:ngsi-ld:station:049",
        "type": "BikeHireDockingStation",
        "address": "Tonnelles",
        "availableBikeNumber": 1,
        "totalSlotNumber": 8,
        "longitude": 43.615155,
        "latitude": 3.839466,
        "status": "working",
        "Date": "01/02/2025",
        "Hour": "00:41:27"
    },
    {
        "id": "urn:ngsi-ld:station:050",
        "type": "BikeHireDockingStation",
        "address": "Parvis Jules Ferry - Gare Saint-Roch",
        "availableBikeNumber": 5,
        "totalSlotNumber": 8,
        "longitude": 43.603889,
        "latitude": 3.879362,
        "status": "working",
        "Date": "01/02/2025",
        "Hour": "00:41:27"
    },
    {
        "id": "urn:ngsi-ld:station:051",
        "type": "BikeHireDockingStation",
        "address": "Pont de Lattes - Gare Saint-Roch",
        "availableBikeNumber": 10,
        "totalSlotNumber": 12,
        "longitude": 43.606036,
        "latitude": 3.882393,
        "status": "working",
        "Date": "01/02/2025",
        "Hour": "00:41:27"
    },
    {
        "id": "urn:ngsi-ld:station:053",
        "type": "BikeHireDockingStation",
        "address": "Deux Ponts - Gare Saint-Roch",
        "availableBikeNumber": 0,
        "totalSlotNumber": 8,
        "longitude": 43.604319,
        "latitude": 3.880916,
        "status": "working",
        "Date": "01/02/2025",
        "Hour": "00:41:27"
    },
    {
        "id": "urn:ngsi-ld:station:054",
        "type": "BikeHireDockingStation",
        "address": "Providence - Ovalie",
        "availableBikeNumber": 5,
        "totalSlotNumber": 8,
        "longitude": 43.588239,
        "latitude": 3.853421,
        "status": "working",
        "Date": "01/02/2025",
        "Hour": "00:41:27"
    },
    {
        "id": "urn:ngsi-ld:station:055",
        "type": "BikeHireDockingStation",
        "address": "Pérols Etang de l Or",
        "availableBikeNumber": 40,
        "totalSlotNumber": 68,
        "longitude": 43.558351,
        "latitude": 3.963412,
        "status": "working",
        "Date": "01/02/2025",
        "Hour": "00:41:27"
    },
    {
        "id": "urn:ngsi-ld:station:056",
        "type": "BikeHireDockingStation",
        "address": "Albert 1er - Cathédrale",
        "availableBikeNumber": 7,
        "totalSlotNumber": 12,
        "longitude": 43.614005,
        "latitude": 3.873218,
        "status": "working",
        "Date": "01/02/2025",
        "Hour": "00:41:27"
    },
    {
        "id": "urn:ngsi-ld:station:057",
        "type": "BikeHireDockingStation",
        "address": "Saint-Guilhem - Courreau",
        "availableBikeNumber": 1,
        "totalSlotNumber": 8,
        "longitude": 43.608996,
        "latitude": 3.872752,
        "status": "working",
        "Date": "01/02/2025",
        "Hour": "00:41:27"
    },
    {
        "id": "urn:ngsi-ld:station:059",
        "type": "BikeHireDockingStation",
        "address": "Sud De France",
        "availableBikeNumber": 1,
        "totalSlotNumber": 8,
        "longitude": 43.59562,
        "latitude": 3.9235,
        "status": "working",
        "Date": "01/02/2025",
        "Hour": "00:41:27"
    },
    {
        "id": "urn:ngsi-ld:station:060",
        "type": "BikeHireDockingStation",
        "address": "Comedie Baudin",
        "availableBikeNumber": 7,
        "totalSlotNumber": 9,
        "longitude": 43.608717,
        "latitude": 3.880787,
        "status": "working",
        "Date": "01/02/2025",
        "Hour": "00:41:27"
    },
    {
        "id": "urn:ngsi-ld:station:061",
        "type": "BikeHireDockingStation",
        "address": "Jean de Beins",
        "availableBikeNumber": 8,
        "totalSlotNumber": 16,
        "longitude": 43.609857,
        "latitude": 3.883884,
        "status": "working",
        "Date": "01/02/2025",
        "Hour": "00:41:27"
    },
    {
        "id": "urn:ngsi-ld:station:001",
        "type": "BikeHireDockingStation",
        "address": "Rue Jules Ferry - Gare Saint-Roch",
        "availableBikeNumber": 9,
        "totalSlotNumber": 12,
        "longitude": 43.605366,
        "latitude": 3.881346,
        "status": "working",
        "Date": "01/02/2025",
        "Hour": "00:56:45"
    },
    {
        "id": "urn:ngsi-ld:station:002",
        "type": "BikeHireDockingStation",
        "address": "Comédie",
        "availableBikeNumber": 4,
        "totalSlotNumber": 20,
        "longitude": 43.608148,
        "latitude": 3.878778,
        "status": "working",
        "Date": "01/02/2025",
        "Hour": "00:56:45"
    },
    {
        "id": "urn:ngsi-ld:station:004",
        "type": "BikeHireDockingStation",
        "address": "Hôtel de Ville",
        "availableBikeNumber": 9,
        "totalSlotNumber": 16,
        "longitude": 43.599088,
        "latitude": 3.894866,
        "status": "working",
        "Date": "01/02/2025",
        "Hour": "00:56:45"
    },
    {
        "id": "urn:ngsi-ld:station:005",
        "type": "BikeHireDockingStation",
        "address": "Corum",
        "availableBikeNumber": 5,
        "totalSlotNumber": 12,
        "longitude": 43.613989,
        "latitude": 3.8816,
        "status": "working",
        "Date": "01/02/2025",
        "Hour": "00:56:45"
    },
    {
        "id": "urn:ngsi-ld:station:006",
        "type": "BikeHireDockingStation",
        "address": "Place Albert 1er - St Charles",
        "availableBikeNumber": 22,
        "totalSlotNumber": 27,
        "longitude": 43.616768,
        "latitude": 3.873375,
        "status": "working",
        "Date": "01/02/2025",
        "Hour": "00:56:45"
    },
    {
        "id": "urn:ngsi-ld:station:007",
        "type": "BikeHireDockingStation",
        "address": "Foch",
        "availableBikeNumber": 0,
        "totalSlotNumber": 8,
        "longitude": 43.610989,
        "latitude": 3.873345,
        "status": "working",
        "Date": "01/02/2025",
        "Hour": "00:56:45"
    },
    {
        "id": "urn:ngsi-ld:station:008",
        "type": "BikeHireDockingStation",
        "address": "Halles Castellane",
        "availableBikeNumber": 2,
        "totalSlotNumber": 12,
        "longitude": 43.609935,
        "latitude": 3.877208,
        "status": "working",
        "Date": "01/02/2025",
        "Hour": "00:56:45"
    },
    {
        "id": "urn:ngsi-ld:station:009",
        "type": "BikeHireDockingStation",
        "address": "Observatoire",
        "availableBikeNumber": 7,
        "totalSlotNumber": 8,
        "longitude": 43.606301,
        "latitude": 3.87724,
        "status": "working",
        "Date": "01/02/2025",
        "Hour": "00:56:45"
    },
    {
        "id": "urn:ngsi-ld:station:010",
        "type": "BikeHireDockingStation",
        "address": "Rondelet",
        "availableBikeNumber": 6,
        "totalSlotNumber": 16,
        "longitude": 43.603038,
        "latitude": 3.875796,
        "status": "working",
        "Date": "01/02/2025",
        "Hour": "00:56:45"
    },
    {
        "id": "urn:ngsi-ld:station:011",
        "type": "BikeHireDockingStation",
        "address": "Plan Cabanes",
        "availableBikeNumber": 3,
        "totalSlotNumber": 12,
        "longitude": 43.608491,
        "latitude": 3.868389,
        "status": "working",
        "Date": "01/02/2025",
        "Hour": "00:56:45"
    },
    {
        "id": "urn:ngsi-ld:station:012",
        "type": "BikeHireDockingStation",
        "address": "Boutonnet",
        "availableBikeNumber": 3,
        "totalSlotNumber": 12,
        "longitude": 43.622629,
        "latitude": 3.868375,
        "status": "working",
        "Date": "01/02/2025",
        "Hour": "00:56:45"
    },
    {
        "id": "urn:ngsi-ld:station:013",
        "type": "BikeHireDockingStation",
        "address": "Emile Combes",
        "availableBikeNumber": 6,
        "totalSlotNumber": 8,
        "longitude": 43.616742,
        "latitude": 3.87998,
        "status": "working",
        "Date": "01/02/2025",
        "Hour": "00:56:45"
    },
    {
        "id": "urn:ngsi-ld:station:014",
        "type": "BikeHireDockingStation",
        "address": "Beaux-Arts",
        "availableBikeNumber": 9,
        "totalSlotNumber": 16,
        "longitude": 43.616698,
        "latitude": 3.884981,
        "status": "working",
        "Date": "01/02/2025",
        "Hour": "00:56:45"
    },
    {
        "id": "urn:ngsi-ld:station:015",
        "type": "BikeHireDockingStation",
        "address": "Les Aubes",
        "availableBikeNumber": 4,
        "totalSlotNumber": 8,
        "longitude": 43.618692,
        "latitude": 3.893844,
        "status": "working",
        "Date": "01/02/2025",
        "Hour": "00:56:45"
    },
    {
        "id": "urn:ngsi-ld:station:016",
        "type": "BikeHireDockingStation",
        "address": "Antigone centre",
        "availableBikeNumber": 10,
        "totalSlotNumber": 12,
        "longitude": 43.607942,
        "latitude": 3.890634,
        "status": "working",
        "Date": "01/02/2025",
        "Hour": "00:56:45"
    },
    {
        "id": "urn:ngsi-ld:station:017",
        "type": "BikeHireDockingStation",
        "address": "Médiathèque Emile Zola",
        "availableBikeNumber": 1,
        "totalSlotNumber": 16,
        "longitude": 43.608218,
        "latitude": 3.89314,
        "status": "working",
        "Date": "01/02/2025",
        "Hour": "00:56:45"
    },
    {
        "id": "urn:ngsi-ld:station:018",
        "type": "BikeHireDockingStation",
        "address": "Nombre d Or",
        "availableBikeNumber": 4,
        "totalSlotNumber": 16,
        "longitude": 43.607859,
        "latitude": 3.886644,
        "status": "working",
        "Date": "01/02/2025",
        "Hour": "00:56:45"
    },
    {
        "id": "urn:ngsi-ld:station:019",
        "type": "BikeHireDockingStation",
        "address": "Louis Blanc",
        "availableBikeNumber": 2,
        "totalSlotNumber": 16,
        "longitude": 43.614642,
        "latitude": 3.877648,
        "status": "working",
        "Date": "01/02/2025",
        "Hour": "00:56:45"
    },
    {
        "id": "urn:ngsi-ld:station:020",
        "type": "BikeHireDockingStation",
        "address": "Gambetta",
        "availableBikeNumber": 8,
        "totalSlotNumber": 8,
        "longitude": 43.607106,
        "latitude": 3.870693,
        "status": "working",
        "Date": "01/02/2025",
        "Hour": "00:56:45"
    },
    {
        "id": "urn:ngsi-ld:station:021",
        "type": "BikeHireDockingStation",
        "address": "Port Marianne",
        "availableBikeNumber": 10,
        "totalSlotNumber": 16,
        "longitude": 43.60032,
        "latitude": 3.89851,
        "status": "working",
        "Date": "01/02/2025",
        "Hour": "00:56:45"
    },
    {
        "id": "urn:ngsi-ld:station:023",
        "type": "BikeHireDockingStation",
        "address": "Les Arceaux",
        "availableBikeNumber": 1,
        "totalSlotNumber": 8,
        "longitude": 43.612659,
        "latitude": 3.867734,
        "status": "working",
        "Date": "01/02/2025",
        "Hour": "00:56:45"
    },
    {
        "id": "urn:ngsi-ld:station:024",
        "type": "BikeHireDockingStation",
        "address": "Cité Mion",
        "availableBikeNumber": 5,
        "totalSlotNumber": 8,
        "longitude": 43.601143,
        "latitude": 3.884373,
        "status": "working",
        "Date": "01/02/2025",
        "Hour": "00:56:45"
    },
    {
        "id": "urn:ngsi-ld:station:025",
        "type": "BikeHireDockingStation",
        "address": "Nouveau Saint-Roch",
        "availableBikeNumber": 2,
        "totalSlotNumber": 8,
        "longitude": 43.599817,
        "latitude": 3.875757,
        "status": "working",
        "Date": "01/02/2025",
        "Hour": "00:56:45"
    },
    {
        "id": "urn:ngsi-ld:station:026",
        "type": "BikeHireDockingStation",
        "address": "Renouvier",
        "availableBikeNumber": 7,
        "totalSlotNumber": 8,
        "longitude": 43.603553,
        "latitude": 3.867884,
        "status": "working",
        "Date": "01/02/2025",
        "Hour": "00:56:45"
    },
    {
        "id": "urn:ngsi-ld:station:027",
        "type": "BikeHireDockingStation",
        "address": "Odysseum",
        "availableBikeNumber": 0,
        "totalSlotNumber": 8,
        "longitude": 43.603727,
        "latitude": 3.918979,
        "status": "working",
        "Date": "01/02/2025",
        "Hour": "00:56:45"
    },
    {
        "id": "urn:ngsi-ld:station:028",
        "type": "BikeHireDockingStation",
        "address": "Saint-Denis",
        "availableBikeNumber": 0,
        "totalSlotNumber": 8,
        "longitude": 43.605021,
        "latitude": 3.875065,
        "status": "working",
        "Date": "01/02/2025",
        "Hour": "00:56:45"
    },
    {
        "id": "urn:ngsi-ld:station:029",
        "type": "BikeHireDockingStation",
        "address": "Richter",
        "availableBikeNumber": 7,
        "totalSlotNumber": 16,
        "longitude": 43.603424,
        "latitude": 3.899263,
        "status": "working",
        "Date": "01/02/2025",
        "Hour": "00:56:45"
    },
    {
        "id": "urn:ngsi-ld:station:030",
        "type": "BikeHireDockingStation",
        "address": "Charles Flahault",
        "availableBikeNumber": 4,
        "totalSlotNumber": 8,
        "longitude": 43.618762,
        "latitude": 3.865971,
        "status": "working",
        "Date": "01/02/2025",
        "Hour": "00:56:45"
    },
    {
        "id": "urn:ngsi-ld:station:031",
        "type": "BikeHireDockingStation",
        "address": "Voltaire",
        "availableBikeNumber": 0,
        "totalSlotNumber": 8,
        "longitude": 43.603767,
        "latitude": 3.888659,
        "status": "working",
        "Date": "01/02/2025",
        "Hour": "00:56:45"
    },
    {
        "id": "urn:ngsi-ld:station:032",
        "type": "BikeHireDockingStation",
        "address": "Prés d Arènes",
        "availableBikeNumber": 8,
        "totalSlotNumber": 8,
        "longitude": 43.59048,
        "latitude": 3.884611,
        "status": "working",
        "Date": "01/02/2025",
        "Hour": "00:56:45"
    },
    {
        "id": "urn:ngsi-ld:station:033",
        "type": "BikeHireDockingStation",
        "address": "Garcia Lorca",
        "availableBikeNumber": 5,
        "totalSlotNumber": 8,
        "longitude": 43.590757,
        "latitude": 3.890616,
        "status": "working",
        "Date": "01/02/2025",
        "Hour": "00:56:45"
    },
    {
        "id": "urn:ngsi-ld:station:034",
        "type": "BikeHireDockingStation",
        "address": "Vert Bois",
        "availableBikeNumber": 11,
        "totalSlotNumber": 16,
        "longitude": 43.635429956,
        "latitude": 3.871179397,
        "status": "working",
        "Date": "01/02/2025",
        "Hour": "00:56:45"
    },
    {
        "id": "urn:ngsi-ld:station:035",
        "type": "BikeHireDockingStation",
        "address": "Malbosc",
        "availableBikeNumber": 0,
        "totalSlotNumber": 8,
        "longitude": 43.633679,
        "latitude": 3.832861,
        "status": "working",
        "Date": "01/02/2025",
        "Hour": "00:56:45"
    },
    {
        "id": "urn:ngsi-ld:station:036",
        "type": "BikeHireDockingStation",
        "address": "Occitanie",
        "availableBikeNumber": 4,
        "totalSlotNumber": 32,
        "longitude": 43.634242,
        "latitude": 3.849128,
        "status": "working",
        "Date": "01/02/2025",
        "Hour": "00:56:45"
    },
    {
        "id": "urn:ngsi-ld:station:037",
        "type": "BikeHireDockingStation",
        "address": "FacdesSciences",
        "availableBikeNumber": 12,
        "totalSlotNumber": 24,
        "longitude": 43.631318,
        "latitude": 3.861299,
        "status": "working",
        "Date": "01/02/2025",
        "Hour": "00:56:45"
    },
    {
        "id": "urn:ngsi-ld:station:038",
        "type": "BikeHireDockingStation",
        "address": "Fac de Lettres",
        "availableBikeNumber": 4,
        "totalSlotNumber": 12,
        "longitude": 43.627799,
        "latitude": 3.869447,
        "status": "working",
        "Date": "01/02/2025",
        "Hour": "00:56:45"
    },
    {
        "id": "urn:ngsi-ld:station:039",
        "type": "BikeHireDockingStation",
        "address": "Aiguelongue",
        "availableBikeNumber": 4,
        "totalSlotNumber": 8,
        "longitude": 43.626163,
        "latitude": 3.882492,
        "status": "working",
        "Date": "01/02/2025",
        "Hour": "00:56:45"
    },
    {
        "id": "urn:ngsi-ld:station:040",
        "type": "BikeHireDockingStation",
        "address": "Jeu de Mail des Abbés",
        "availableBikeNumber": 2,
        "totalSlotNumber": 8,
        "longitude": 43.619701,
        "latitude": 3.883831,
        "status": "working",
        "Date": "01/02/2025",
        "Hour": "00:56:45"
    },
    {
        "id": "urn:ngsi-ld:station:041",
        "type": "BikeHireDockingStation",
        "address": "Euromédecine",
        "availableBikeNumber": 2,
        "totalSlotNumber": 8,
        "longitude": 43.639119,
        "latitude": 3.828199,
        "status": "working",
        "Date": "01/02/2025",
        "Hour": "00:56:45"
    },
    {
        "id": "urn:ngsi-ld:station:042",
        "type": "BikeHireDockingStation",
        "address": "Marie Caizergues",
        "availableBikeNumber": 0,
        "totalSlotNumber": 8,
        "longitude": 43.619871,
        "latitude": 3.873812,
        "status": "working",
        "Date": "01/02/2025",
        "Hour": "00:56:45"
    },
    {
        "id": "urn:ngsi-ld:station:043",
        "type": "BikeHireDockingStation",
        "address": "Sabines",
        "availableBikeNumber": 1,
        "totalSlotNumber": 8,
        "longitude": 43.584211,
        "latitude": 3.860031,
        "status": "working",
        "Date": "01/02/2025",
        "Hour": "00:56:45"
    },
    {
        "id": "urn:ngsi-ld:station:044",
        "type": "BikeHireDockingStation",
        "address": "Celleneuve",
        "availableBikeNumber": 4,
        "totalSlotNumber": 8,
        "longitude": 43.61467,
        "latitude": 3.832624,
        "status": "working",
        "Date": "01/02/2025",
        "Hour": "00:56:45"
    },
    {
        "id": "urn:ngsi-ld:station:045",
        "type": "BikeHireDockingStation",
        "address": "Jardin de la Lironde",
        "availableBikeNumber": 5,
        "totalSlotNumber": 8,
        "longitude": 43.60585,
        "latitude": 3.911576,
        "status": "working",
        "Date": "01/02/2025",
        "Hour": "00:56:45"
    },
    {
        "id": "urn:ngsi-ld:station:046",
        "type": "BikeHireDockingStation",
        "address": "Père Soulas",
        "availableBikeNumber": 7,
        "totalSlotNumber": 8,
        "longitude": 43.621983,
        "latitude": 3.855603,
        "status": "working",
        "Date": "01/02/2025",
        "Hour": "00:56:45"
    },
    {
        "id": "urn:ngsi-ld:station:047",
        "type": "BikeHireDockingStation",
        "address": "Place Viala",
        "availableBikeNumber": 2,
        "totalSlotNumber": 8,
        "longitude": 43.616812,
        "latitude": 3.855075,
        "status": "working",
        "Date": "01/02/2025",
        "Hour": "00:56:45"
    },
    {
        "id": "urn:ngsi-ld:station:048",
        "type": "BikeHireDockingStation",
        "address": "Hôtel du Département",
        "availableBikeNumber": 2,
        "totalSlotNumber": 8,
        "longitude": 43.621682,
        "latitude": 3.83477,
        "status": "working",
        "Date": "01/02/2025",
        "Hour": "00:56:45"
    },
    {
        "id": "urn:ngsi-ld:station:049",
        "type": "BikeHireDockingStation",
        "address": "Tonnelles",
        "availableBikeNumber": 1,
        "totalSlotNumber": 8,
        "longitude": 43.615155,
        "latitude": 3.839466,
        "status": "working",
        "Date": "01/02/2025",
        "Hour": "00:56:45"
    },
    {
        "id": "urn:ngsi-ld:station:050",
        "type": "BikeHireDockingStation",
        "address": "Parvis Jules Ferry - Gare Saint-Roch",
        "availableBikeNumber": 5,
        "totalSlotNumber": 8,
        "longitude": 43.603889,
        "latitude": 3.879362,
        "status": "working",
        "Date": "01/02/2025",
        "Hour": "00:56:45"
    },
    {
        "id": "urn:ngsi-ld:station:051",
        "type": "BikeHireDockingStation",
        "address": "Pont de Lattes - Gare Saint-Roch",
        "availableBikeNumber": 10,
        "totalSlotNumber": 12,
        "longitude": 43.606036,
        "latitude": 3.882393,
        "status": "working",
        "Date": "01/02/2025",
        "Hour": "00:56:45"
    },
    {
        "id": "urn:ngsi-ld:station:053",
        "type": "BikeHireDockingStation",
        "address": "Deux Ponts - Gare Saint-Roch",
        "availableBikeNumber": 0,
        "totalSlotNumber": 8,
        "longitude": 43.604319,
        "latitude": 3.880916,
        "status": "working",
        "Date": "01/02/2025",
        "Hour": "00:56:45"
    },
    {
        "id": "urn:ngsi-ld:station:054",
        "type": "BikeHireDockingStation",
        "address": "Providence - Ovalie",
        "availableBikeNumber": 5,
        "totalSlotNumber": 8,
        "longitude": 43.588239,
        "latitude": 3.853421,
        "status": "working",
        "Date": "01/02/2025",
        "Hour": "00:56:45"
    },
    {
        "id": "urn:ngsi-ld:station:055",
        "type": "BikeHireDockingStation",
        "address": "Pérols Etang de l Or",
        "availableBikeNumber": 40,
        "totalSlotNumber": 68,
        "longitude": 43.558351,
        "latitude": 3.963412,
        "status": "working",
        "Date": "01/02/2025",
        "Hour": "00:56:45"
    },
    {
        "id": "urn:ngsi-ld:station:056",
        "type": "BikeHireDockingStation",
        "address": "Albert 1er - Cathédrale",
        "availableBikeNumber": 7,
        "totalSlotNumber": 12,
        "longitude": 43.614005,
        "latitude": 3.873218,
        "status": "working",
        "Date": "01/02/2025",
        "Hour": "00:56:45"
    },
    {
        "id": "urn:ngsi-ld:station:057",
        "type": "BikeHireDockingStation",
        "address": "Saint-Guilhem - Courreau",
        "availableBikeNumber": 1,
        "totalSlotNumber": 8,
        "longitude": 43.608996,
        "latitude": 3.872752,
        "status": "working",
        "Date": "01/02/2025",
        "Hour": "00:56:45"
    },
    {
        "id": "urn:ngsi-ld:station:059",
        "type": "BikeHireDockingStation",
        "address": "Sud De France",
        "availableBikeNumber": 1,
        "totalSlotNumber": 8,
        "longitude": 43.59562,
        "latitude": 3.9235,
        "status": "working",
        "Date": "01/02/2025",
        "Hour": "00:56:45"
    },
    {
        "id": "urn:ngsi-ld:station:060",
        "type": "BikeHireDockingStation",
        "address": "Comedie Baudin",
        "availableBikeNumber": 7,
        "totalSlotNumber": 9,
        "longitude": 43.608717,
        "latitude": 3.880787,
        "status": "working",
        "Date": "01/02/2025",
        "Hour": "00:56:45"
    },
    {
        "id": "urn:ngsi-ld:station:061",
        "type": "BikeHireDockingStation",
        "address": "Jean de Beins",
        "availableBikeNumber": 8,
        "totalSlotNumber": 16,
        "longitude": 43.609857,
        "latitude": 3.883884,
        "status": "working",
        "Date": "01/02/2025",
        "Hour": "00:56:45"
    },
    {
        "id": "urn:ngsi-ld:station:001",
        "type": "BikeHireDockingStation",
        "address": "Rue Jules Ferry - Gare Saint-Roch",
        "availableBikeNumber": 8,
        "totalSlotNumber": 12,
        "longitude": 43.605366,
        "latitude": 3.881346,
        "status": "working",
        "Date": "01/02/2025",
        "Hour": "02:46:45"
    },
    {
        "id": "urn:ngsi-ld:station:002",
        "type": "BikeHireDockingStation",
        "address": "Comédie",
        "availableBikeNumber": 2,
        "totalSlotNumber": 20,
        "longitude": 43.608148,
        "latitude": 3.878778,
        "status": "working",
        "Date": "01/02/2025",
        "Hour": "02:46:45"
    },
    {
        "id": "urn:ngsi-ld:station:004",
        "type": "BikeHireDockingStation",
        "address": "Hôtel de Ville",
        "availableBikeNumber": 9,
        "totalSlotNumber": 16,
        "longitude": 43.599088,
        "latitude": 3.894866,
        "status": "working",
        "Date": "01/02/2025",
        "Hour": "02:46:45"
    },
    {
        "id": "urn:ngsi-ld:station:005",
        "type": "BikeHireDockingStation",
        "address": "Corum",
        "availableBikeNumber": 10,
        "totalSlotNumber": 12,
        "longitude": 43.613989,
        "latitude": 3.8816,
        "status": "working",
        "Date": "01/02/2025",
        "Hour": "02:46:45"
    },
    {
        "id": "urn:ngsi-ld:station:006",
        "type": "BikeHireDockingStation",
        "address": "Place Albert 1er - St Charles",
        "availableBikeNumber": 20,
        "totalSlotNumber": 27,
        "longitude": 43.616768,
        "latitude": 3.873375,
        "status": "working",
        "Date": "01/02/2025",
        "Hour": "02:46:45"
    },
    {
        "id": "urn:ngsi-ld:station:007",
        "type": "BikeHireDockingStation",
        "address": "Foch",
        "availableBikeNumber": 0,
        "totalSlotNumber": 8,
        "longitude": 43.610989,
        "latitude": 3.873345,
        "status": "working",
        "Date": "01/02/2025",
        "Hour": "02:46:45"
    },
    {
        "id": "urn:ngsi-ld:station:008",
        "type": "BikeHireDockingStation",
        "address": "Halles Castellane",
        "availableBikeNumber": 2,
        "totalSlotNumber": 12,
        "longitude": 43.609935,
        "latitude": 3.877208,
        "status": "working",
        "Date": "01/02/2025",
        "Hour": "02:46:45"
    },
    {
        "id": "urn:ngsi-ld:station:009",
        "type": "BikeHireDockingStation",
        "address": "Observatoire",
        "availableBikeNumber": 0,
        "totalSlotNumber": 8,
        "longitude": 43.606301,
        "latitude": 3.87724,
        "status": "working",
        "Date": "01/02/2025",
        "Hour": "02:46:45"
    },
    {
        "id": "urn:ngsi-ld:station:010",
        "type": "BikeHireDockingStation",
        "address": "Rondelet",
        "availableBikeNumber": 6,
        "totalSlotNumber": 16,
        "longitude": 43.603038,
        "latitude": 3.875796,
        "status": "working",
        "Date": "01/02/2025",
        "Hour": "02:46:45"
    },
    {
        "id": "urn:ngsi-ld:station:011",
        "type": "BikeHireDockingStation",
        "address": "Plan Cabanes",
        "availableBikeNumber": 2,
        "totalSlotNumber": 12,
        "longitude": 43.608491,
        "latitude": 3.868389,
        "status": "working",
        "Date": "01/02/2025",
        "Hour": "02:46:45"
    },
    {
        "id": "urn:ngsi-ld:station:012",
        "type": "BikeHireDockingStation",
        "address": "Boutonnet",
        "availableBikeNumber": 7,
        "totalSlotNumber": 12,
        "longitude": 43.622629,
        "latitude": 3.868375,
        "status": "working",
        "Date": "01/02/2025",
        "Hour": "02:46:45"
    },
    {
        "id": "urn:ngsi-ld:station:013",
        "type": "BikeHireDockingStation",
        "address": "Emile Combes",
        "availableBikeNumber": 6,
        "totalSlotNumber": 8,
        "longitude": 43.616742,
        "latitude": 3.87998,
        "status": "working",
        "Date": "01/02/2025",
        "Hour": "02:46:45"
    },
    {
        "id": "urn:ngsi-ld:station:014",
        "type": "BikeHireDockingStation",
        "address": "Beaux-Arts",
        "availableBikeNumber": 9,
        "totalSlotNumber": 16,
        "longitude": 43.616698,
        "latitude": 3.884981,
        "status": "working",
        "Date": "01/02/2025",
        "Hour": "02:46:45"
    },
    {
        "id": "urn:ngsi-ld:station:015",
        "type": "BikeHireDockingStation",
        "address": "Les Aubes",
        "availableBikeNumber": 5,
        "totalSlotNumber": 8,
        "longitude": 43.618692,
        "latitude": 3.893844,
        "status": "working",
        "Date": "01/02/2025",
        "Hour": "02:46:45"
    },
    {
        "id": "urn:ngsi-ld:station:016",
        "type": "BikeHireDockingStation",
        "address": "Antigone centre",
        "availableBikeNumber": 10,
        "totalSlotNumber": 12,
        "longitude": 43.607942,
        "latitude": 3.890634,
        "status": "working",
        "Date": "01/02/2025",
        "Hour": "02:46:45"
    },
    {
        "id": "urn:ngsi-ld:station:017",
        "type": "BikeHireDockingStation",
        "address": "Médiathèque Emile Zola",
        "availableBikeNumber": 1,
        "totalSlotNumber": 16,
        "longitude": 43.608218,
        "latitude": 3.89314,
        "status": "working",
        "Date": "01/02/2025",
        "Hour": "02:46:45"
    },
    {
        "id": "urn:ngsi-ld:station:018",
        "type": "BikeHireDockingStation",
        "address": "Nombre d Or",
        "availableBikeNumber": 5,
        "totalSlotNumber": 16,
        "longitude": 43.607859,
        "latitude": 3.886644,
        "status": "working",
        "Date": "01/02/2025",
        "Hour": "02:46:45"
    },
    {
        "id": "urn:ngsi-ld:station:019",
        "type": "BikeHireDockingStation",
        "address": "Louis Blanc",
        "availableBikeNumber": 1,
        "totalSlotNumber": 16,
        "longitude": 43.614642,
        "latitude": 3.877648,
        "status": "working",
        "Date": "01/02/2025",
        "Hour": "02:46:45"
    },
    {
        "id": "urn:ngsi-ld:station:020",
        "type": "BikeHireDockingStation",
        "address": "Gambetta",
        "availableBikeNumber": 8,
        "totalSlotNumber": 8,
        "longitude": 43.607106,
        "latitude": 3.870693,
        "status": "working",
        "Date": "01/02/2025",
        "Hour": "02:46:45"
    },
    {
        "id": "urn:ngsi-ld:station:021",
        "type": "BikeHireDockingStation",
        "address": "Port Marianne",
        "availableBikeNumber": 13,
        "totalSlotNumber": 16,
        "longitude": 43.60032,
        "latitude": 3.89851,
        "status": "working",
        "Date": "01/02/2025",
        "Hour": "02:46:45"
    },
    {
        "id": "urn:ngsi-ld:station:023",
        "type": "BikeHireDockingStation",
        "address": "Les Arceaux",
        "availableBikeNumber": 1,
        "totalSlotNumber": 8,
        "longitude": 43.612659,
        "latitude": 3.867734,
        "status": "working",
        "Date": "01/02/2025",
        "Hour": "02:46:45"
    },
    {
        "id": "urn:ngsi-ld:station:024",
        "type": "BikeHireDockingStation",
        "address": "Cité Mion",
        "availableBikeNumber": 8,
        "totalSlotNumber": 8,
        "longitude": 43.601143,
        "latitude": 3.884373,
        "status": "working",
        "Date": "01/02/2025",
        "Hour": "02:46:45"
    },
    {
        "id": "urn:ngsi-ld:station:025",
        "type": "BikeHireDockingStation",
        "address": "Nouveau Saint-Roch",
        "availableBikeNumber": 1,
        "totalSlotNumber": 8,
        "longitude": 43.599817,
        "latitude": 3.875757,
        "status": "working",
        "Date": "01/02/2025",
        "Hour": "02:46:45"
    },
    {
        "id": "urn:ngsi-ld:station:026",
        "type": "BikeHireDockingStation",
        "address": "Renouvier",
        "availableBikeNumber": 7,
        "totalSlotNumber": 8,
        "longitude": 43.603553,
        "latitude": 3.867884,
        "status": "working",
        "Date": "01/02/2025",
        "Hour": "02:46:45"
    },
    {
        "id": "urn:ngsi-ld:station:027",
        "type": "BikeHireDockingStation",
        "address": "Odysseum",
        "availableBikeNumber": 0,
        "totalSlotNumber": 8,
        "longitude": 43.603727,
        "latitude": 3.918979,
        "status": "working",
        "Date": "01/02/2025",
        "Hour": "02:46:45"
    },
    {
        "id": "urn:ngsi-ld:station:028",
        "type": "BikeHireDockingStation",
        "address": "Saint-Denis",
        "availableBikeNumber": 0,
        "totalSlotNumber": 8,
        "longitude": 43.605021,
        "latitude": 3.875065,
        "status": "working",
        "Date": "01/02/2025",
        "Hour": "02:46:45"
    },
    {
        "id": "urn:ngsi-ld:station:029",
        "type": "BikeHireDockingStation",
        "address": "Richter",
        "availableBikeNumber": 7,
        "totalSlotNumber": 16,
        "longitude": 43.603424,
        "latitude": 3.899263,
        "status": "working",
        "Date": "01/02/2025",
        "Hour": "02:46:45"
    },
    {
        "id": "urn:ngsi-ld:station:030",
        "type": "BikeHireDockingStation",
        "address": "Charles Flahault",
        "availableBikeNumber": 6,
        "totalSlotNumber": 8,
        "longitude": 43.618762,
        "latitude": 3.865971,
        "status": "working",
        "Date": "01/02/2025",
        "Hour": "02:46:45"
    },
    {
        "id": "urn:ngsi-ld:station:031",
        "type": "BikeHireDockingStation",
        "address": "Voltaire",
        "availableBikeNumber": 0,
        "totalSlotNumber": 8,
        "longitude": 43.603767,
        "latitude": 3.888659,
        "status": "working",
        "Date": "01/02/2025",
        "Hour": "02:46:45"
    },
    {
        "id": "urn:ngsi-ld:station:032",
        "type": "BikeHireDockingStation",
        "address": "Prés d Arènes",
        "availableBikeNumber": 8,
        "totalSlotNumber": 8,
        "longitude": 43.59048,
        "latitude": 3.884611,
        "status": "working",
        "Date": "01/02/2025",
        "Hour": "02:46:45"
    },
    {
        "id": "urn:ngsi-ld:station:033",
        "type": "BikeHireDockingStation",
        "address": "Garcia Lorca",
        "availableBikeNumber": 6,
        "totalSlotNumber": 8,
        "longitude": 43.590757,
        "latitude": 3.890616,
        "status": "working",
        "Date": "01/02/2025",
        "Hour": "02:46:45"
    },
    {
        "id": "urn:ngsi-ld:station:034",
        "type": "BikeHireDockingStation",
        "address": "Vert Bois",
        "availableBikeNumber": 11,
        "totalSlotNumber": 16,
        "longitude": 43.635429956,
        "latitude": 3.871179397,
        "status": "working",
        "Date": "01/02/2025",
        "Hour": "02:46:45"
    },
    {
        "id": "urn:ngsi-ld:station:035",
        "type": "BikeHireDockingStation",
        "address": "Malbosc",
        "availableBikeNumber": 0,
        "totalSlotNumber": 8,
        "longitude": 43.633679,
        "latitude": 3.832861,
        "status": "working",
        "Date": "01/02/2025",
        "Hour": "02:46:45"
    },
    {
        "id": "urn:ngsi-ld:station:036",
        "type": "BikeHireDockingStation",
        "address": "Occitanie",
        "availableBikeNumber": 4,
        "totalSlotNumber": 32,
        "longitude": 43.634242,
        "latitude": 3.849128,
        "status": "working",
        "Date": "01/02/2025",
        "Hour": "02:46:45"
    },
    {
        "id": "urn:ngsi-ld:station:037",
        "type": "BikeHireDockingStation",
        "address": "FacdesSciences",
        "availableBikeNumber": 13,
        "totalSlotNumber": 24,
        "longitude": 43.631318,
        "latitude": 3.861299,
        "status": "working",
        "Date": "01/02/2025",
        "Hour": "02:46:45"
    },
    {
        "id": "urn:ngsi-ld:station:038",
        "type": "BikeHireDockingStation",
        "address": "Fac de Lettres",
        "availableBikeNumber": 5,
        "totalSlotNumber": 12,
        "longitude": 43.627799,
        "latitude": 3.869447,
        "status": "working",
        "Date": "01/02/2025",
        "Hour": "02:46:45"
    },
    {
        "id": "urn:ngsi-ld:station:039",
        "type": "BikeHireDockingStation",
        "address": "Aiguelongue",
        "availableBikeNumber": 4,
        "totalSlotNumber": 8,
        "longitude": 43.626163,
        "latitude": 3.882492,
        "status": "working",
        "Date": "01/02/2025",
        "Hour": "02:46:45"
    },
    {
        "id": "urn:ngsi-ld:station:040",
        "type": "BikeHireDockingStation",
        "address": "Jeu de Mail des Abbés",
        "availableBikeNumber": 3,
        "totalSlotNumber": 8,
        "longitude": 43.619701,
        "latitude": 3.883831,
        "status": "working",
        "Date": "01/02/2025",
        "Hour": "02:46:45"
    },
    {
        "id": "urn:ngsi-ld:station:041",
        "type": "BikeHireDockingStation",
        "address": "Euromédecine",
        "availableBikeNumber": 2,
        "totalSlotNumber": 8,
        "longitude": 43.639119,
        "latitude": 3.828199,
        "status": "working",
        "Date": "01/02/2025",
        "Hour": "02:46:45"
    },
    {
        "id": "urn:ngsi-ld:station:042",
        "type": "BikeHireDockingStation",
        "address": "Marie Caizergues",
        "availableBikeNumber": 0,
        "totalSlotNumber": 8,
        "longitude": 43.619871,
        "latitude": 3.873812,
        "status": "working",
        "Date": "01/02/2025",
        "Hour": "02:46:45"
    },
    {
        "id": "urn:ngsi-ld:station:043",
        "type": "BikeHireDockingStation",
        "address": "Sabines",
        "availableBikeNumber": 2,
        "totalSlotNumber": 8,
        "longitude": 43.584211,
        "latitude": 3.860031,
        "status": "working",
        "Date": "01/02/2025",
        "Hour": "02:46:45"
    },
    {
        "id": "urn:ngsi-ld:station:044",
        "type": "BikeHireDockingStation",
        "address": "Celleneuve",
        "availableBikeNumber": 4,
        "totalSlotNumber": 8,
        "longitude": 43.61467,
        "latitude": 3.832624,
        "status": "working",
        "Date": "01/02/2025",
        "Hour": "02:46:45"
    },
    {
        "id": "urn:ngsi-ld:station:045",
        "type": "BikeHireDockingStation",
        "address": "Jardin de la Lironde",
        "availableBikeNumber": 2,
        "totalSlotNumber": 8,
        "longitude": 43.60585,
        "latitude": 3.911576,
        "status": "working",
        "Date": "01/02/2025",
        "Hour": "02:46:45"
    },
    {
        "id": "urn:ngsi-ld:station:046",
        "type": "BikeHireDockingStation",
        "address": "Père Soulas",
        "availableBikeNumber": 8,
        "totalSlotNumber": 8,
        "longitude": 43.621983,
        "latitude": 3.855603,
        "status": "working",
        "Date": "01/02/2025",
        "Hour": "02:46:45"
    },
    {
        "id": "urn:ngsi-ld:station:047",
        "type": "BikeHireDockingStation",
        "address": "Place Viala",
        "availableBikeNumber": 2,
        "totalSlotNumber": 8,
        "longitude": 43.616812,
        "latitude": 3.855075,
        "status": "working",
        "Date": "01/02/2025",
        "Hour": "02:46:45"
    },
    {
        "id": "urn:ngsi-ld:station:048",
        "type": "BikeHireDockingStation",
        "address": "Hôtel du Département",
        "availableBikeNumber": 2,
        "totalSlotNumber": 8,
        "longitude": 43.621682,
        "latitude": 3.83477,
        "status": "working",
        "Date": "01/02/2025",
        "Hour": "02:46:45"
    },
    {
        "id": "urn:ngsi-ld:station:049",
        "type": "BikeHireDockingStation",
        "address": "Tonnelles",
        "availableBikeNumber": 2,
        "totalSlotNumber": 8,
        "longitude": 43.615155,
        "latitude": 3.839466,
        "status": "working",
        "Date": "01/02/2025",
        "Hour": "02:46:45"
    },
    {
        "id": "urn:ngsi-ld:station:050",
        "type": "BikeHireDockingStation",
        "address": "Parvis Jules Ferry - Gare Saint-Roch",
        "availableBikeNumber": 5,
        "totalSlotNumber": 8,
        "longitude": 43.603889,
        "latitude": 3.879362,
        "status": "working",
        "Date": "01/02/2025",
        "Hour": "02:46:45"
    },
    {
        "id": "urn:ngsi-ld:station:051",
        "type": "BikeHireDockingStation",
        "address": "Pont de Lattes - Gare Saint-Roch",
        "availableBikeNumber": 8,
        "totalSlotNumber": 12,
        "longitude": 43.606036,
        "latitude": 3.882393,
        "status": "working",
        "Date": "01/02/2025",
        "Hour": "02:46:45"
    },
    {
        "id": "urn:ngsi-ld:station:053",
        "type": "BikeHireDockingStation",
        "address": "Deux Ponts - Gare Saint-Roch",
        "availableBikeNumber": 0,
        "totalSlotNumber": 8,
        "longitude": 43.604319,
        "latitude": 3.880916,
        "status": "working",
        "Date": "01/02/2025",
        "Hour": "02:46:45"
    },
    {
        "id": "urn:ngsi-ld:station:054",
        "type": "BikeHireDockingStation",
        "address": "Providence - Ovalie",
        "availableBikeNumber": 5,
        "totalSlotNumber": 8,
        "longitude": 43.588239,
        "latitude": 3.853421,
        "status": "working",
        "Date": "01/02/2025",
        "Hour": "02:46:45"
    },
    {
        "id": "urn:ngsi-ld:station:055",
        "type": "BikeHireDockingStation",
        "address": "Pérols Etang de l Or",
        "availableBikeNumber": 40,
        "totalSlotNumber": 68,
        "longitude": 43.558351,
        "latitude": 3.963412,
        "status": "working",
        "Date": "01/02/2025",
        "Hour": "02:46:45"
    },
    {
        "id": "urn:ngsi-ld:station:056",
        "type": "BikeHireDockingStation",
        "address": "Albert 1er - Cathédrale",
        "availableBikeNumber": 4,
        "totalSlotNumber": 12,
        "longitude": 43.614005,
        "latitude": 3.873218,
        "status": "working",
        "Date": "01/02/2025",
        "Hour": "02:46:45"
    },
    {
        "id": "urn:ngsi-ld:station:057",
        "type": "BikeHireDockingStation",
        "address": "Saint-Guilhem - Courreau",
        "availableBikeNumber": 1,
        "totalSlotNumber": 8,
        "longitude": 43.608996,
        "latitude": 3.872752,
        "status": "working",
        "Date": "01/02/2025",
        "Hour": "02:46:45"
    },
    {
        "id": "urn:ngsi-ld:station:059",
        "type": "BikeHireDockingStation",
        "address": "Sud De France",
        "availableBikeNumber": 1,
        "totalSlotNumber": 8,
        "longitude": 43.59562,
        "latitude": 3.9235,
        "status": "working",
        "Date": "01/02/2025",
        "Hour": "02:46:45"
    },
    {
        "id": "urn:ngsi-ld:station:060",
        "type": "BikeHireDockingStation",
        "address": "Comedie Baudin",
        "availableBikeNumber": 5,
        "totalSlotNumber": 9,
        "longitude": 43.608717,
        "latitude": 3.880787,
        "status": "working",
        "Date": "01/02/2025",
        "Hour": "02:46:45"
    },
    {
        "id": "urn:ngsi-ld:station:061",
        "type": "BikeHireDockingStation",
        "address": "Jean de Beins",
        "availableBikeNumber": 8,
        "totalSlotNumber": 16,
        "longitude": 43.609857,
        "latitude": 3.883884,
        "status": "working",
        "Date": "01/02/2025",
        "Hour": "02:46:45"
    },
    {
        "id": "urn:ngsi-ld:station:001",
        "type": "BikeHireDockingStation",
        "address": "Rue Jules Ferry - Gare Saint-Roch",
        "availableBikeNumber": 7,
        "totalSlotNumber": 12,
        "longitude": 43.605366,
        "latitude": 3.881346,
        "status": "working",
        "Date": "01/02/2025",
        "Hour": "03:40:59"
    },
    {
        "id": "urn:ngsi-ld:station:002",
        "type": "BikeHireDockingStation",
        "address": "Comédie",
        "availableBikeNumber": 1,
        "totalSlotNumber": 20,
        "longitude": 43.608148,
        "latitude": 3.878778,
        "status": "working",
        "Date": "01/02/2025",
        "Hour": "03:40:59"
    },
    {
        "id": "urn:ngsi-ld:station:004",
        "type": "BikeHireDockingStation",
        "address": "Hôtel de Ville",
        "availableBikeNumber": 9,
        "totalSlotNumber": 16,
        "longitude": 43.599088,
        "latitude": 3.894866,
        "status": "working",
        "Date": "01/02/2025",
        "Hour": "03:40:59"
    },
    {
        "id": "urn:ngsi-ld:station:005",
        "type": "BikeHireDockingStation",
        "address": "Corum",
        "availableBikeNumber": 9,
        "totalSlotNumber": 12,
        "longitude": 43.613989,
        "latitude": 3.8816,
        "status": "working",
        "Date": "01/02/2025",
        "Hour": "03:40:59"
    },