[
    {
        "name": "Antigone",
        "type": "OffStreetParking",
        "availableSpotNumber": 149,
        "totalSpotNumber": 239,
        "longitude": 43.60871606,
        "latitude": 3.88881893,
        "status": "Open",
        "Date": "01/02/2025",
        "Hour": "00:19:05"
    },
    {
        "name": "Comedie",
        "type": "OffStreetParking",
        "availableSpotNumber": 311,
        "totalSpotNumber": 698,
        "longitude": 43.60856092,
        "latitude": 3.87976196,
        "status": "Open",
        "Date": "01/02/2025",
        "Hour": "00:19:05"
    },
    {
        "name": "Corum",
        "type": "OffStreetParking",
        "availableSpotNumber": 305,
        "totalSpotNumber": 490,
        "longitude": 43.61388821,
        "latitude": 3.88225773,
        "status": "Open",
        "Date": "01/02/2025",
        "Hour": "00:19:05"
    },
    {
        "name": "Europa",
        "type": "OffStreetParking",
        "availableSpotNumber": 488,
        "totalSpotNumber": 591,
        "longitude": 43.60784971,
        "latitude": 3.89253074,
        "status": "Open",
        "Date": "01/02/2025",
        "Hour": "00:19:05"
    },
    {
        "name": "Foch",
        "type": "OffStreetParking",
        "availableSpotNumber": 89,
        "totalSpotNumber": 598,
        "longitude": 43.61074912,
        "latitude": 3.87657084,
        "status": "Open",
        "Date": "01/02/2025",
        "Hour": "00:19:05"
    },
    {
        "name": "Gambetta",
        "type": "OffStreetParking",
        "availableSpotNumber": 216,
        "totalSpotNumber": 440,
        "longitude": 43.60695138,
        "latitude": 3.87137436,
        "status": "Open",
        "Date": "01/02/2025",
        "Hour": "00:19:05"
    },
    {
        "name": "Gare",
        "type": "OffStreetParking",
        "availableSpotNumber": 400,
        "totalSpotNumber": 653,
        "longitude": 43.604024,
        "latitude": 3.87891,
        "status": "Open",
        "Date": "01/02/2025",
        "Hour": "00:19:05"
    },
    {
        "name": "Triangle",
        "type": "OffStreetParking",
        "availableSpotNumber": 324,
        "totalSpotNumber": 434,
        "longitude": 43.60923384,
        "latitude": 3.88184418,
        "status": "Open",
        "Date": "01/02/2025",
        "Hour": "00:19:05"
    },
    {
        "name": "Pitot",
        "type": "OffStreetParking",
        "availableSpotNumber": 411,
        "totalSpotNumber": 587,
        "longitude": 43.61224494,
        "latitude": 3.87019117,
        "status": "Open",
        "Date": "01/02/2025",
        "Hour": "00:19:05"
    },
    {
        "name": "Circe",
        "type": "OffStreetParking",
        "availableSpotNumber": 1159,
        "totalSpotNumber": 1200,
        "longitude": 43.60495377,
        "latitude": 3.9178495,
        "status": "Open",
        "Date": "01/02/2025",
        "Hour": "00:19:05"
    },
    {
        "name": "Garcia Lorca",
        "type": "OffStreetParking",
        "availableSpotNumber": 327,
        "totalSpotNumber": 395,
        "longitude": 43.59098509,
        "latitude": 3.8907158,
        "status": "Open",
        "Date": "01/02/2025",
        "Hour": "00:19:05"
    },
    {
        "name": "Mosson",
        "type": "OffStreetParking",
        "availableSpotNumber": 342,
        "totalSpotNumber": 350,
        "longitude": 43.61623716,
        "latitude": 3.81966554,
        "status": "Open",
        "Date": "01/02/2025",
        "Hour": "00:19:05"
    },
    {
        "name": "Sabines",
        "type": "OffStreetParking",
        "availableSpotNumber": 183,
        "totalSpotNumber": 220,
        "longitude": 43.58383263,
        "latitude": 3.8602246,
        "status": "Open",
        "Date": "01/02/2025",
        "Hour": "00:19:05"
    },
    {
        "name": "Sablassou",
        "type": "OffStreetParking",
        "availableSpotNumber": 357,
        "totalSpotNumber": 372,
        "longitude": 43.63419194,
        "latitude": 3.92229536,
        "status": "Open",
        "Date": "01/02/2025",
        "Hour": "00:19:05"
    },
    {
        "name": "Saint Jean Le Sec",
        "type": "OffStreetParking",
        "availableSpotNumber": 265,
        "totalSpotNumber": 285,
        "longitude": 43.57082225,
        "latitude": 3.8379312,
        "status": "Open",
        "Date": "01/02/2025",
        "Hour": "00:19:05"
    },
    {
        "name": "Euromedecine",
        "type": "OffStreetParking",
        "availableSpotNumber": 206,
        "totalSpotNumber": 255,
        "longitude": 43.63895359,
        "latitude": 3.82772365,
        "status": "Open",
        "Date": "01/02/2025",
        "Hour": "00:19:05"
    },
    {
        "name": "Occitanie",
        "type": "OffStreetParking",
        "availableSpotNumber": 469,
        "totalSpotNumber": 615,
        "longitude": 43.63456232,
        "latitude": 3.84859796,
        "status": "Open",
        "Date": "01/02/2025",
        "Hour": "00:19:05"
    },
    {
        "name": "Vicarello",
        "type": "OffStreetParking",
        "availableSpotNumber": 58,
        "totalSpotNumber": 64,
        "longitude": 43.63286,
        "latitude": 3.898411,
        "status": "Open",
        "Date": "01/02/2025",
        "Hour": "00:19:05"
    },
    {
        "name": "Gaumont EST",
        "type": "OffStreetParking",
        "availableSpotNumber": 108,
        "totalSpotNumber": 109,
        "longitude": 43.604526,
        "latitude": 3.91529,
        "status": "Open",
        "Date": "01/02/2025",
        "Hour": "00:19:05"
    },
    {
        "name": "Gaumont OUEST",
        "type": "OffStreetParking",
        "availableSpotNumber": 203,
        "totalSpotNumber": 250,
        "longitude": 43.604824,
        "latitude": 3.914158,
        "status": "Open",
        "Date": "01/02/2025",
        "Hour": "00:19:05"
    },
    {
        "name": "Charles de Gaulle",
        "type": "OffStreetParking",
        "availableSpotNumber": 75,
        "totalSpotNumber": 260,
        "longitude": 43.6285421,
        "latitude": 3.8977621,
        "status": "Open",
        "Date": "01/02/2025",
        "Hour": "00:19:05"
    },
    {
        "name": "Polygone",
        "type": "OffStreetParking",
        "availableSpotNumber": 1525,
        "totalSpotNumber": 1911,
        "longitude": 43.607697,
        "latitude": 3.88515,
        "status": "Open",
        "Date": "01/02/2025",
        "Hour": "00:19:05"
    },
    {
        "name": "Arc de Triomphe",
        "type": "OffStreetParking",
        "availableSpotNumber": 101,
        "totalSpotNumber": 440,
        "longitude": 43.61100267,
        "latitude": 3.8732007,
        "status": "Open",
        "Date": "01/02/2025",
        "Hour": "00:19:05"
    },
    {
        "name": "Gaumont-Circe",
        "type": "OffStreetParking",
        "availableSpotNumber": 486,
        "totalSpotNumber": 500,
        "longitude": 43.60495377,
        "latitude": 3.9178495,
        "status": "Open",
        "Date": "01/02/2025",
        "Hour": "00:19:05"
    },
    {
        "name": "Antigone",
        "type": "OffStreetParking",
        "availableSpotNumber": 149,
        "totalSpotNumber": 239,
        "longitude": 43.60871606,
        "latitude": 3.88881893,
        "status": "Open",
        "Date": "01/02/2025",
        "Hour": "00:30:16"
    },
    {
        "name": "Comedie",
        "type": "OffStreetParking",
        "availableSpotNumber": 337,
        "totalSpotNumber": 698,
        "longitude": 43.60856092,
        "latitude": 3.87976196,
        "status": "Open",
        "Date": "01/02/2025",
        "Hour": "00:30:16"
    },
    {
        "name": "Corum",
        "type": "OffStreetParking",
        "availableSpotNumber": 311,
        "totalSpotNumber": 490,
        "longitude": 43.61388821,
        "latitude": 3.88225773,
        "status": "Open",
        "Date": "01/02/2025",
        "Hour": "00:30:16"
    },
    {
        "name": "Europa",
        "type": "OffStreetParking",
        "availableSpotNumber": 488,
        "totalSpotNumber": 591,
        "longitude": 43.60784971,
        "latitude": 3.89253074,
        "status": "Open",
        "Date": "01/02/2025",
        "Hour": "00:30:16"
    },
    {
        "name": "Foch",
        "type": "OffStreetParking",
        "availableSpotNumber": 89,
        "totalSpotNumber": 598,
        "longitude": 43.61074912,
        "latitude": 3.87657084,
        "status": "Open",
        "Date": "01/02/2025",
        "Hour": "00:30:16"
    },
    {
        "name": "Gambetta",
        "type": "OffStreetParking",
        "availableSpotNumber": 216,
        "totalSpotNumber": 440,
        "longitude": 43.60695138,
        "latitude": 3.87137436,
        "status": "Open",
        "Date": "01/02/2025",
        "Hour": "00:30:16"
    },
    {
        "name": "Gare",
        "type": "OffStreetParking",
        "availableSpotNumber": 402,
        "totalSpotNumber": 653,
        "longitude": 43.604024,
        "latitude": 3.87891,
        "status": "Open",
        "Date": "01/02/2025",
        "Hour": "00:30:16"
    },
    {
        "name": "Triangle",
        "type": "OffStreetParking",
        "availableSpotNumber": 330,
        "totalSpotNumber": 434,
        "longitude": 43.60923384,
        "latitude": 3.88184418,
        "status": "Open",
        "Date": "01/02/2025",
        "Hour": "00:30:16"
    },
    {
        "name": "Pitot",
        "type": "OffStreetParking",
        "availableSpotNumber": 431,
        "totalSpotNumber": 587,
        "longitude": 43.61224494,
        "latitude": 3.87019117,
        "status": "Open",
        "Date": "01/02/2025",
        "Hour": "00:30:16"
    },
    {
        "name": "Circe",
        "type": "OffStreetParking",
        "availableSpotNumber": 1160,
        "totalSpotNumber": 1200,
        "longitude": 43.60495377,
        "latitude": 3.9178495,
        "status": "Open",
        "Date": "01/02/2025",
        "Hour": "00:30:16"
    },
    {
        "name": "Garcia Lorca",
        "type": "OffStreetParking",
        "availableSpotNumber": 327,
        "totalSpotNumber": 395,
        "longitude": 43.59098509,
        "latitude": 3.8907158,
        "status": "Open",
        "Date": "01/02/2025",
        "Hour": "00:30:16"
    },
    {
        "name": "Mosson",
        "type": "OffStreetParking",
        "availableSpotNumber": 346,
        "totalSpotNumber": 350,
        "longitude": 43.61623716,
        "latitude": 3.81966554,
        "status": "Open",
        "Date": "01/02/2025",
        "Hour": "00:30:16"
    },
    {
        "name": "Sabines",
        "type": "OffStreetParking",
        "availableSpotNumber": 186,
        "totalSpotNumber": 220,
        "longitude": 43.58383263,
        "latitude": 3.8602246,
        "status": "Open",
        "Date": "01/02/2025",
        "Hour": "00:30:16"
    },
    {
        "name": "Sablassou",
        "type": "OffStreetParking",
        "availableSpotNumber": 359,
        "totalSpotNumber": 372,
        "longitude": 43.63419194,
        "latitude": 3.92229536,
        "status": "Open",
        "Date": "01/02/2025",
        "Hour": "00:30:16"
    },
    {
        "name": "Saint Jean Le Sec",
        "type": "OffStreetParking",
        "availableSpotNumber": 265,
        "totalSpotNumber": 285,
        "longitude": 43.57082225,
        "latitude": 3.8379312,
        "status": "Open",
        "Date": "01/02/2025",
        "Hour": "00:30:16"
    },
    {
        "name": "Euromedecine",
        "type": "OffStreetParking",
        "availableSpotNumber": 207,
        "totalSpotNumber": 255,
        "longitude": 43.63895359,
        "latitude": 3.82772365,
        "status": "Open",
        "Date": "01/02/2025",
        "Hour": "00:30:16"
    },
    {
        "name": "Occitanie",
        "type": "OffStreetParking",
        "availableSpotNumber": 472,
        "totalSpotNumber": 615,
        "longitude": 43.63456232,
        "latitude": 3.84859796,
        "status": "Open",
        "Date": "01/02/2025",
        "Hour": "00:30:16"
    },
    {
        "name": "Vicarello",
        "type": "OffStreetParking",
        "availableSpotNumber": 58,
        "totalSpotNumber": 64,
        "longitude": 43.63286,
        "latitude": 3.898411,
        "status": "Open",
        "Date": "01/02/2025",
        "Hour": "00:30:16"
    },
    {
        "name": "Gaumont EST",
        "type": "OffStreetParking",
        "availableSpotNumber": 108,
        "totalSpotNumber": 109,
        "longitude": 43.604526,
        "latitude": 3.91529,
        "status": "Open",
        "Date": "01/02/2025",
        "Hour": "00:30:16"
    },
    {
        "name": "Gaumont OUEST",
        "type": "OffStreetParking",
        "availableSpotNumber": 222,
        "totalSpotNumber": 250,
        "longitude": 43.604824,
        "latitude": 3.914158,
        "status": "Open",
        "Date": "01/02/2025",
        "Hour": "00:30:16"
    },
    {
        "name": "Charles de Gaulle",
        "type": "OffStreetParking",
        "availableSpotNumber": 76,
        "totalSpotNumber": 260,
        "longitude": 43.6285421,
        "latitude": 3.8977621,
        "status": "Open",
        "Date": "01/02/2025",
        "Hour": "00:30:16"
    },
    {
        "name": "Polygone",
        "type": "OffStreetParking",
        "availableSpotNumber": 1547,
        "totalSpotNumber": 1911,
        "longitude": 43.607697,
        "latitude": 3.88515,
        "status": "Open",
        "Date": "01/02/2025",
        "Hour": "00:30:16"
    },
    {
        "name": "Arc de Triomphe",
        "type": "OffStreetParking",
        "availableSpotNumber": 105,
        "totalSpotNumber": 440,
        "longitude": 43.61100267,
        "latitude": 3.8732007,
        "status": "Open",
        "Date": "01/02/2025",
        "Hour": "00:30:16"
    },
    {
        "name": "Gaumont-Circe",
        "type": "OffStreetParking",
        "availableSpotNumber": 490,
        "totalSpotNumber": 500,
        "longitude": 43.60495377,
        "latitude": 3.9178495,
        "status": "Open",
        "Date": "01/02/2025",
        "Hour": "00:30:16"
    },
    {
        "name": "Antigone",
        "type": "OffStreetParking",
        "availableSpotNumber": 149,
        "totalSpotNumber": 239,
        "longitude": 43.60871606,
        "latitude": 3.88881893,
        "status": "Open",
        "Date": "01/02/2025",
        "Hour": "00:41:26"
    },
    {
        "name": "Comedie",
        "type": "OffStreetParking",
        "availableSpotNumber": 347,
        "totalSpotNumber": 698,
        "longitude": 43.60856092,
        "latitude": 3.87976196,
        "status": "Open",
        "Date": "01/02/2025",
        "Hour": "00:41:26"
    },
    {
        "name": "Corum",
        "type": "OffStreetParking",
        "availableSpotNumber": 315,
        "totalSpotNumber": 490,
        "longitude": 43.61388821,
        "latitude": 3.88225773,
        "status": "Open",
        "Date": "01/02/2025",
        "Hour": "00:41:26"
    },
    {
        "name": "Europa",
        "type": "OffStreetParking",
        "availableSpotNumber": 488,
        "totalSpotNumber": 591,
        "longitude": 43.60784971,
        "latitude": 3.89253074,
        "status": "Open",
        "Date": "01/02/2025",
        "Hour": "00:41:26"
    },
    {
        "name": "Foch",
        "type": "OffStreetParking",
        "availableSpotNumber": 89,
        "totalSpotNumber": 598,
        "longitude": 43.61074912,
        "latitude": 3.87657084,
        "status": "Open",
        "Date": "01/02/2025",
        "Hour": "00:41:26"
    },
    {
        "name": "Gambetta",
        "type": "OffStreetParking",
        "availableSpotNumber": 216,
        "totalSpotNumber": 440,
        "longitude": 43.60695138,
        "latitude": 3.87137436,
        "status": "Open",
        "Date": "01/02/2025",
        "Hour": "00:41:26"
    },
    {
        "name": "Gare",
        "type": "OffStreetParking",
        "availableSpotNumber": 407,
        "totalSpotNumber": 653,
        "longitude": 43.604024,
        "latitude": 3.87891,
        "status": "Open",
        "Date": "01/02/2025",
        "Hour": "00:41:26"
    },
    {
        "name": "Triangle",
        "type": "OffStreetParking",
        "availableSpotNumber": 333,
        "totalSpotNumber": 434,
        "longitude": 43.60923384,
        "latitude": 3.88184418,
        "status": "Open",
        "Date": "01/02/2025",
        "Hour": "00:41:26"
    },
    {
        "name": "Pitot",
        "type": "OffStreetParking",
        "availableSpotNumber": 436,
        "totalSpotNumber": 587,
        "longitude": 43.61224494,
        "latitude": 3.87019117,
        "status": "Open",
        "Date": "01/02/2025",
        "Hour": "00:41:26"
    },
    {
        "name": "Circe",
        "type": "OffStreetParking",
        "availableSpotNumber": 1163,
        "totalSpotNumber": 1200,
        "longitude": 43.60495377,
        "latitude": 3.9178495,
        "status": "Open",
        "Date": "01/02/2025",
        "Hour": "00:41:26"
    },
    {
        "name": "Garcia Lorca",
        "type": "OffStreetParking",
        "availableSpotNumber": 327,
        "totalSpotNumber": 395,
        "longitude": 43.59098509,
        "latitude": 3.8907158,
        "status": "Open",
        "Date": "01/02/2025",
        "Hour": "00:41:26"
    },
    {
        "name": "Mosson",
        "type": "OffStreetParking",
        "availableSpotNumber": 348,
        "totalSpotNumber": 350,
        "longitude": 43.61623716,
        "latitude": 3.81966554,
        "status": "Open",
        "Date": "01/02/2025",
        "Hour": "00:41:26"
    },
    {
        "name": "Sabines",
        "type": "OffStreetParking",
        "availableSpotNumber": 187,
        "totalSpotNumber": 220,
        "longitude": 43.58383263,
        "latitude": 3.8602246,
        "status": "Open",
        "Date": "01/02/2025",
        "Hour": "00:41:26"
    },
    {
        "name": "Sablassou",
        "type": "OffStreetParking",
        "availableSpotNumber": 360,
        "totalSpotNumber": 372,
        "longitude": 43.63419194,
        "latitude": 3.92229536,
        "status": "Open",
        "Date": "01/02/2025",
        "Hour": "00:41:26"
    },
    {
        "name": "Saint Jean Le Sec",
        "type": "OffStreetParking",
        "availableSpotNumber": 265,
        "totalSpotNumber": 285,
        "longitude": 43.57082225,
        "latitude": 3.8379312,
        "status": "Open",
        "Date": "01/02/2025",
        "Hour": "00:41:26"
    },
    {
        "name": "Euromedecine",
        "type": "OffStreetParking",
        "availableSpotNumber": 207,
        "totalSpotNumber": 255,
        "longitude": 43.63895359,
        "latitude": 3.82772365,
        "status": "Open",
        "Date": "01/02/2025",
        "Hour": "00:41:26"
    },
    {
        "name": "Occitanie",
        "type": "OffStreetParking",
        "availableSpotNumber": 474,
        "totalSpotNumber": 615,
        "longitude": 43.63456232,
        "latitude": 3.84859796,
        "status": "Open",
        "Date": "01/02/2025",
        "Hour": "00:41:26"
    },
    {
        "name": "Vicarello",
        "type": "OffStreetParking",
        "availableSpotNumber": 58,
        "totalSpotNumber": 64,
        "longitude": 43.63286,
        "latitude": 3.898411,
        "status": "Open",
        "Date": "01/02/2025",
        "Hour": "00:41:26"
    },
    {
        "name": "Gaumont EST",
        "type": "OffStreetParking",
        "availableSpotNumber": 108,
        "totalSpotNumber": 109,
        "longitude": 43.604526,
        "latitude": 3.91529,
        "status": "Open",
        "Date": "01/02/2025",
        "Hour": "00:41:26"
    },
    {
        "name": "Gaumont OUEST",
        "type": "OffStreetParking",
        "availableSpotNumber": 231,
        "totalSpotNumber": 250,
        "longitude": 43.604824,
        "latitude": 3.914158,
        "status": "Open",
        "Date": "01/02/2025",
        "Hour": "00:41:26"
    },
    {
        "name": "Charles de Gaulle",
        "type": "OffStreetParking",
        "availableSpotNumber": 78,
        "totalSpotNumber": 260,
        "longitude": 43.6285421,
        "latitude": 3.8977621,
        "status": "Open",
        "Date": "01/02/2025",
        "Hour": "00:41:26"
    },
    {
        "name": "Polygone",
        "type": "OffStreetParking",
        "availableSpotNumber": 1565,
        "totalSpotNumber": 1911,
        "longitude": 43.607697,
        "latitude": 3.88515,
        "status": "Open",
        "Date": "01/02/2025",
        "Hour": "00:41:26"
    },
    {
        "name": "Arc de Triomphe",
        "type": "OffStreetParking",
        "availableSpotNumber": 108,
        "totalSpotNumber": 440,
        "longitude": 43.61100267,
        "latitude": 3.8732007,
        "status": "Open",
        "Date": "01/02/2025",
        "Hour": "00:41:26"
    },
    {
        "name": "Gaumont-Circe",
        "type": "OffStreetParking",
        "availableSpotNumber": 494,
        "totalSpotNumber": 500,
        "longitude": 43.60495377,
        "latitude": 3.9178495,
        "status": "Open",
        "Date": "01/02/2025",
        "Hour": "00:41:26"
    },
    {
        "name": "Antigone",
        "type": "OffStreetParking",
        "availableSpotNumber": 149,
        "totalSpotNumber": 239,
        "longitude": 43.60871606,
        "latitude": 3.88881893,
        "status": "Open",
        "Date": "01/02/2025",
        "Hour": "00:56:44"
    },
    {
        "name": "Comedie",
        "type": "OffStreetParking",
        "availableSpotNumber": 366,
        "totalSpotNumber": 698,
        "longitude": 43.60856092,
        "latitude": 3.87976196,
        "status": "Open",
        "Date": "01/02/2025",
        "Hour": "00:56:44"
    },
    {
        "name": "Corum",
        "type": "OffStreetParking",
        "availableSpotNumber": 323,
        "totalSpotNumber": 490,
        "longitude": 43.61388821,
        "latitude": 3.88225773,
        "status": "Open",
        "Date": "01/02/2025",
        "Hour": "00:56:44"
    },
    {
        "name": "Europa",
        "type": "OffStreetParking",
        "availableSpotNumber": 488,
        "totalSpotNumber": 591,
        "longitude": 43.60784971,
        "latitude": 3.89253074,
        "status": "Open",
        "Date": "01/02/2025",
        "Hour": "00:56:44"
    },
    {
        "name": "Foch",
        "type": "OffStreetParking",
        "availableSpotNumber": 89,
        "totalSpotNumber": 598,
        "longitude": 43.61074912,
        "latitude": 3.87657084,
        "status": "Open",
        "Date": "01/02/2025",
        "Hour": "00:56:44"
    },
    {
        "name": "Gambetta",
        "type": "OffStreetParking",
        "availableSpotNumber": 216,
        "totalSpotNumber": 440,
        "longitude": 43.60695138,
        "latitude": 3.87137436,
        "status": "Open",
        "Date": "01/02/2025",
        "Hour": "00:56:44"
    },
    {
        "name": "Gare",
        "type": "OffStreetParking",
        "availableSpotNumber": 416,
        "totalSpotNumber": 653,
        "longitude": 43.604024,
        "latitude": 3.87891,
        "status": "Open",
        "Date": "01/02/2025",
        "Hour": "00:56:44"
    },
    {
        "name": "Triangle",
        "type": "OffStreetParking",
        "availableSpotNumber": 338,
        "totalSpotNumber": 434,
        "longitude": 43.60923384,
        "latitude": 3.88184418,
        "status": "Open",
        "Date": "01/02/2025",
        "Hour": "00:56:44"
    },
    {
        "name": "Pitot",
        "type": "OffStreetParking",
        "availableSpotNumber": 441,
        "totalSpotNumber": 587,
        "longitude": 43.61224494,
        "latitude": 3.87019117,
        "status": "Open",
        "Date": "01/02/2025",
        "Hour": "00:56:44"
    },
    {
        "name": "Circe",
        "type": "OffStreetParking",
        "availableSpotNumber": 1169,
        "totalSpotNumber": 1200,
        "longitude": 43.60495377,
        "latitude": 3.9178495,
        "status": "Open",
        "Date": "01/02/2025",
        "Hour": "00:56:44"
    },
    {
        "name": "Garcia Lorca",
        "type": "OffStreetParking",
        "availableSpotNumber": 328,
        "totalSpotNumber": 395,
        "longitude": 43.59098509,
        "latitude": 3.8907158,
        "status": "Open",
        "Date": "01/02/2025",
        "Hour": "00:56:44"
    },
    {
        "name": "Mosson",
        "type": "OffStreetParking",
        "availableSpotNumber": 348,
        "totalSpotNumber": 350,
        "longitude": 43.61623716,
        "latitude": 3.81966554,
        "status": "Open",
        "Date": "01/02/2025",
        "Hour": "00:56:44"
    },
    {
        "name": "Sabines",
        "type": "OffStreetParking",
        "availableSpotNumber": 190,
        "totalSpotNumber": 220,
        "longitude": 43.58383263,
        "latitude": 3.8602246,
        "status": "Open",
        "Date": "01/02/2025",
        "Hour": "00:56:44"
    },
    {
        "name": "Sablassou",
        "type": "OffStreetParking",
        "availableSpotNumber": 360,
        "totalSpotNumber": 372,
        "longitude": 43.63419194,
        "latitude": 3.92229536,
        "status": "Open",
        "Date": "01/02/2025",
        "Hour": "00:56:44"
    },
    {
        "name": "Saint Jean Le Sec",
        "type": "OffStreetParking",
        "availableSpotNumber": 265,
        "totalSpotNumber": 285,
        "longitude": 43.57082225,
        "latitude": 3.8379312,
        "status": "Open",
        "Date": "01/02/2025",
        "Hour": "00:56:44"
    },
    {
        "name": "Euromedecine",
        "type": "OffStreetParking",
        "availableSpotNumber": 207,
        "totalSpotNumber": 255,
        "longitude": 43.63895359,
        "latitude": 3.82772365,
        "status": "Open",
        "Date": "01/02/2025",
        "Hour": "00:56:44"
    },
    {
        "name": "Occitanie",
        "type": "OffStreetParking",
        "availableSpotNumber": 475,
        "totalSpotNumber": 615,
        "longitude": 43.63456232,
        "latitude": 3.84859796,
        "status": "Open",
        "Date": "01/02/2025",
        "Hour": "00:56:44"
    },
    {
        "name": "Vicarello",
        "type": "OffStreetParking",
        "availableSpotNumber": 58,
        "totalSpotNumber": 64,
        "longitude": 43.63286,
        "latitude": 3.898411,
        "status": "Open",
        "Date": "01/02/2025",
        "Hour": "00:56:44"
    },
    {
        "name": "Gaumont EST",
        "type": "OffStreetParking",
        "availableSpotNumber": 108,
        "totalSpotNumber": 109,
        "longitude": 43.604526,
        "latitude": 3.91529,
        "status": "Open",
        "Date": "01/02/2025",
        "Hour": "00:56:44"
    },
    {
        "name": "Gaumont OUEST",
        "type": "OffStreetParking",
        "availableSpotNumber": 241,
        "totalSpotNumber": 250,
        "longitude": 43.604824,
        "latitude": 3.914158,
        "status": "Open",
        "Date": "01/02/2025",
        "Hour": "00:56:44"
    },
    {
        "name": "Charles de Gaulle",
        "type": "OffStreetParking",
        "availableSpotNumber": 78,
        "totalSpotNumber": 260,
        "longitude": 43.6285421,
        "latitude": 3.8977621,
        "status": "Open",
        "Date": "01/02/2025",
        "Hour": "00:56:44"
    },
    {
        "name": "Polygone",
        "type": "OffStreetParking",
        "availableSpotNumber": 1587,
        "totalSpotNumber": 1911,
        "longitude": 43.607697,
        "latitude": 3.88515,
        "status": "Open",
        "Date": "01/02/2025",
        "Hour": "00:56:44"
    },
    {
        "name": "Arc de Triomphe",
        "type": "OffStreetParking",
        "availableSpotNumber": 111,
        "totalSpotNumber": 440,
        "longitude": 43.61100267,
        "latitude": 3.8732007,
        "status": "Open",
        "Date": "01/02/2025",
        "Hour": "00:56:44"
    },
    {
        "name": "Gaumont-Circe",
        "type": "OffStreetParking",
        "availableSpotNumber": 498,
        "totalSpotNumber": 500,
        "longitude": 43.60495377,
        "latitude": 3.9178495,
        "status": "Open",
        "Date": "01/02/2025",
        "Hour": "00:56:44"
    },
    {
        "name": "Antigone",
        "type": "OffStreetParking",
        "availableSpotNumber": 150,
        "totalSpotNumber": 239,
        "longitude": 43.60871606,
        "latitude": 3.88881893,
        "status": "Open",
        "Date": "01/02/2025",
        "Hour": "02:46:44"
    },
    {
        "name": "Comedie",
        "type": "OffStreetParking",
        "availableSpotNumber": 464,
        "totalSpotNumber": 698,
        "longitude": 43.60856092,
        "latitude": 3.87976196,
        "status": "Open",
        "Date": "01/02/2025",
        "Hour": "02:46:44"
    },
    {
        "name": "Corum",
        "type": "OffStreetParking",
        "availableSpotNumber": 351,
        "totalSpotNumber": 490,
        "longitude": 43.61388821,
        "latitude": 3.88225773,
        "status": "Open",
        "Date": "01/02/2025",
        "Hour": "02:46:44"
    },
    {
        "name": "Europa",
        "type": "OffStreetParking",
        "availableSpotNumber": 488,
        "totalSpotNumber": 591,
        "longitude": 43.60784971,
        "latitude": 3.89253074,
        "status": "Open",
        "Date": "01/02/2025",
        "Hour": "02:46:44"
    },
    {
        "name": "Foch",
        "type": "OffStreetParking",
        "availableSpotNumber": 89,
        "totalSpotNumber": 598,
        "longitude": 43.61074912,
        "latitude": 3.87657084,
        "status": "Open",
        "Date": "01/02/2025",
        "Hour": "02:46:44"
    },
    {
        "name": "Gambetta",
        "type": "OffStreetParking",
        "availableSpotNumber": 216,
        "totalSpotNumber": 440,
        "longitude": 43.60695138,
        "latitude": 3.87137436,
        "status": "Open",
        "Date": "01/02/2025",
        "Hour": "02:46:44"
    },
    {
        "name": "Gare",
        "type": "OffStreetParking",
        "availableSpotNumber": 432,
        "totalSpotNumber": 653,
        "longitude": 43.604024,
        "latitude": 3.87891,
        "status": "Open",
        "Date": "01/02/2025",
        "Hour": "02:46:44"
    },
    {
        "name": "Triangle",
        "type": "OffStreetParking",
        "availableSpotNumber": 355,
        "totalSpotNumber": 434,
        "longitude": 43.60923384,
        "latitude": 3.88184418,
        "status": "Open",
        "Date": "01/02/2025",
        "Hour": "02:46:44"
    },
    {
        "name": "Pitot",
        "type": "OffStreetParking",
        "availableSpotNumber": 488,
        "totalSpotNumber": 587,
        "longitude": 43.61224494,
        "latitude": 3.87019117,
        "status": "Open",
        "Date": "01/02/2025",
        "Hour": "02:46:44"
    },
    {
        "name": "Circe",
        "type": "OffStreetParking",
        "availableSpotNumber": 1172,
        "totalSpotNumber": 1200,
        "longitude": 43.60495377,
        "latitude": 3.9178495,
        "status": "Open",
        "Date": "01/02/2025",
        "Hour": "02:46:44"
    },
    {
        "name": "Garcia Lorca",
        "type": "OffStreetParking",
        "availableSpotNumber": 329,
        "totalSpotNumber": 395,
        "longitude": 43.59098509,
        "latitude": 3.8907158,
        "status": "Open",
        "Date": "01/02/2025",
        "Hour": "02:46:44"
    },
    {
        "name": "Mosson",
        "type": "OffStreetParking",
        "availableSpotNumber": 350,
        "totalSpotNumber": 350,
        "longitude": 43.61623716,
        "latitude": 3.81966554,
        "status": "Open",
        "Date": "01/02/2025",
        "Hour": "02:46:44"
    },
    {
        "name": "Sabines",
        "type": "OffStreetParking",
        "availableSpotNumber": 194,
        "totalSpotNumber": 220,
        "longitude": 43.58383263,
        "latitude": 3.8602246,
        "status": "Open",
        "Date": "01/02/2025",
        "Hour": "02:46:44"
    },
    {
        "name": "Sablassou",
        "type": "OffStreetParking",
        "availableSpotNumber": 360,
        "totalSpotNumber": 372,
        "longitude": 43.63419194,
        "latitude": 3.92229536,
        "status": "Open",
        "Date": "01/02/2025",
        "Hour": "02:46:44"
    },
    {
        "name": "Saint Jean Le Sec",
        "type": "OffStreetParking",
        "availableSpotNumber": 265,
        "totalSpotNumber": 285,
        "longitude": 43.57082225,
        "latitude": 3.8379312,
        "status": "Open",
        "Date": "01/02/2025",
        "Hour": "02:46:44"
    },
    {
        "name": "Euromedecine",
        "type": "OffStreetParking",
        "availableSpotNumber": 207,
        "totalSpotNumber": 255,
        "longitude": 43.63895359,
        "latitude": 3.82772365,
        "status": "Open",
        "Date": "01/02/2025",
        "Hour": "02:46:44"
    },
    {
        "name": "Occitanie",
        "type": "OffStreetParking",
        "availableSpotNumber": 478,
        "totalSpotNumber": 615,
        "longitude": 43.63456232,
        "latitude": 3.84859796,
        "status": "Open",
        "Date": "01/02/2025",
        "Hour": "02:46:44"
    },
    {
        "name": "Vicarello",
        "type": "OffStreetParking",
        "availableSpotNumber": 55,
        "totalSpotNumber": 64,
        "longitude": 43.63286,
        "latitude": 3.898411,
        "status": "Open",
        "Date": "01/02/2025",
        "Hour": "02:46:44"
    },
    {
        "name": "Gaumont EST",
        "type": "OffStreetParking",
        "availableSpotNumber": 108,
        "totalSpotNumber": 109,
        "longitude": 43.604526,
        "latitude": 3.91529,
        "status": "Open",
        "Date": "01/02/2025",
        "Hour": "02:46:44"
    },
    {
        "name": "Gaumont OUEST",
        "type": "OffStreetParking",
        "availableSpotNumber": 245,
        "totalSpotNumber": 250,
        "longitude": 43.604824,
        "latitude": 3.914158,
        "status": "Open",
        "Date": "01/02/2025",
        "Hour": "02:46:44"
    },
    {
        "name": "Charles de Gaulle",
        "type": "OffStreetParking",
        "availableSpotNumber": 78,
        "totalSpotNumber": 260,
        "longitude": 43.6285421,
        "latitude": 3.8977621,
        "status": "Open",
        "Date": "01/02/2025",
        "Hour": "02:46:44"
    },
    {
        "name": "Polygone",
        "type": "OffStreetParking",
        "availableSpotNumber": 1657,
        "totalSpotNumber": 1911,
        "longitude": 43.607697,
        "latitude": 3.88515,
        "status": "Open",
        "Date": "01/02/2025",
        "Hour": "02:46:44"
    },
    {
        "name": "Arc de Triomphe",
        "type": "OffStreetParking",
        "availableSpotNumber": 137,
        "totalSpotNumber": 440,
        "longitude": 43.61100267,
        "latitude": 3.8732007,
        "status": "Open",
        "Date": "01/02/2025",
        "Hour": "02:46:44"
    },
    {
        "name": "Gaumont-Circe",
        "type": "OffStreetParking",
        "availableSpotNumber": 500,
        "totalSpotNumber": 500,
        "longitude": 43.60495377,
        "latitude": 3.9178495,
        "status": "Open",
        "Date": "01/02/2025",
        "Hour": "02:46:44"
    },
    {
        "name": "Antigone",
        "type": "OffStreetParking",
        "availableSpotNumber": 149,
        "totalSpotNumber": 239,
        "longitude": 43.60871606,
        "latitude": 3.88881893,
        "status": "Open",
        "Date": "01/02/2025",
        "Hour": "03:40:58"
    },
    {
        "name": "Comedie",
        "type": "OffStreetParking",
        "availableSpotNumber": 468,
        "totalSpotNumber": 698,
        "longitude": 43.60856092,
        "latitude": 3.87976196,
        "status": "Open",
        "Date": "01/02/2025",
        "Hour": "03:40:58"
    },
    {
        "name": "Corum",
        "type": "OffStreetParking",
        "availableSpotNumber": 352,
        "totalSpotNumber": 490,
        "longitude": 43.61388821,
        "latitude": 3.88225773,
        "status": "Open",
        "Date": "01/02/2025",
        "Hour": "03:40:58"
    },
    {
        "name": "Europa",
        "type": "OffStreetParking",
        "availableSpotNumber": 489,
        "totalSpotNumber": 591,
        "longitude": 43.60784971,
        "latitude": 3.89253074,
        "status": "Open",
        "Date": "01/02/2025",
        "Hour": "03:40:58"
    },
    {
        "name": "Foch",
        "type": "OffStreetParking",
        "availableSpotNumber": 89,
        "totalSpotNumber": 598,
        "longitude": 43.61074912,
        "latitude": 3.87657084,
        "status": "Open",
        "Date": "01/02/2025",
        "Hour": "03:40:58"
    },
    {
        "name": "Gambetta",
        "type": "OffStreetParking",
        "availableSpotNumber": 216,
        "totalSpotNumber": 440,
        "longitude": 43.60695138,
        "latitude": 3.87137436,
        "status": "Open",
        "Date": "01/02/2025",
        "Hour": "03:40:58"
    },
    {
        "name": "Gare",
        "type": "OffStreetParking",
        "availableSpotNumber": 433,
        "totalSpotNumber": 653,
        "longitude": 43.604024,
        "latitude": 3.87891,
        "status": "Open",
        "Date": "01/02/2025",
        "Hour": "03:40:58"
    },
    {
        "name": "Triangle",
        "type": "OffStreetParking",
        "availableSpotNumber": 356,
        "totalSpotNumber": 434,
        "longitude": 43.60923384,
        "latitude": 3.88184418,
        "status": "Open",
        "Date": "01/02/2025",
        "Hour": "03:40:58"
    },
    {
        "name": "Pitot",
        "type": "OffStreetParking",
        "availableSpotNumber": 493,
        "totalSpotNumber": 587,
        "longitude": 43.61224494,
        "latitude": 3.87019117,
        "status": "Open",
        "Date": "01/02/2025",
        "Hour": "03:40:58"
    },
    {
        "name": "Circe",
        "type": "OffStreetParking",
        "availableSpotNumber": 1172,
        "totalSpotNumber": 1200,
        "longitude": 43.60495377,
        "latitude": 3.9178495,
        "status": "Open",
        "Date": "01/02/2025",
        "Hour": "03:40:58"
    },
    {
        "name": "Garcia Lorca",
        "type": "OffStreetParking",
        "availableSpotNumber": 329,
        "totalSpotNumber": 395,
        "longitude": 43.59098509,
        "latitude": 3.8907158,
        "status": "Open",
        "Date": "01/02/2025",
        "Hour": "03:40:58"
    },
    {
        "name": "Mosson",
        "type": "OffStreetParking",
        "availableSpotNumber": 350,
        "totalSpotNumber": 350,
        "longitude": 43.61623716,
        "latitude": 3.81966554,
        "status": "Open",
        "Date": "01/02/2025",
        "Hour": "03:40:58"
    },
    {
        "name": "Sabines",
        "type": "OffStreetParking",
        "availableSpotNumber": 195,
        "totalSpotNumber": 220,
        "longitude": 43.58383263,
        "latitude": 3.8602246,
        "status": "Open",
        "Date": "01/02/2025",
        "Hour": "03:40:58"
    },
    {
        "name": "Sablassou",
        "type": "OffStreetParking",
        "availableSpotNumber": 360,
        "totalSpotNumber": 372,
        "longitude": 43.63419194,
        "latitude": 3.92229536,
        "status": "Open",
        "Date": "01/02/2025",
        "Hour": "03:40:58"
    },
    {
        "name": "Saint Jean Le Sec",
        "type": "OffStreetParking",
        "availableSpotNumber": 265,
        "totalSpotNumber": 285,
        "longitude": 43.57082225,
        "latitude": 3.8379312,
        "status": "Open",
        "Date": "01/02/2025",
        "Hour": "03:40:58"
    },
    {
        "name": "Euromedecine",
        "type": "OffStreetParking",
        "availableSpotNumber": 207,
        "totalSpotNumber": 255,
        "longitude": 43.63895359,
        "latitude": 3.82772365,
        "status": "Open",
        "Date": "01/02/2025",
        "Hour": "03:40:58"
    },
    {
        "name": "Occitanie",
        "type": "OffStreetParking",
        "availableSpotNumber": 479,
        "totalSpotNumber": 615,
        "longitude": 43.63456232,
        "latitude": 3.84859796,
        "status": "Open",
        "Date": "01/02/2025",
        "Hour": "03:40:58"
    },
    {
        "name": "Vicarello",
        "type": "OffStreetParking",
        "availableSpotNumber": 55,
        "totalSpotNumber": 64,
        "longitude": 43.63286,
        "latitude": 3.898411,
        "status": "Open",
        "Date": "01/02/2025",
        "Hour": "03:40:58"
    },
    {
        "name": "Gaumont EST",
        "type": "OffStreetParking",
        "availableSpotNumber": 108,
        "totalSpotNumber": 109,
        "longitude": 43.604526,
        "latitude": 3.91529,
        "status": "Open",
        "Date": "01/02/2025",
        "Hour": "03:40:58"
    },
    {
        "name": "Gaumont OUEST",
        "type": "OffStreetParking",
        "availableSpotNumber": 245,
        "totalSpotNumber": 250,
        "longitude": 43.604824,
        "latitude": 3.914158,
        "status": "Closed",
        "Date": "01/02/2025",
        "Hour": "03:40:58"
    },
    {
        "name": "Charles de Gaulle",
        "type": "OffStreetParking",
        "availableSpotNumber": 76,
        "totalSpotNumber": 260,
        "longitude": 43.6285421,
        "latitude": 3.8977621,
        "status": "Open",
        "Date": "01/02/2025",
        "Hour": "03:40:58"
    },
    {
        "name": "Polygone",
        "type": "OffStreetParking",
        "availableSpotNumber": 1678,
        "totalSpotNumber": 1911,
        "longitude": 43.607697,
        "latitude": 3.88515,
        "status": "Open",
        "Date": "01/02/2025",
        "Hour": "03:40:58"
    },
    {
        "name": "Arc de Triomphe",
        "type": "OffStreetParking",
        "availableSpotNumber": 137,
        "totalSpotNumber": 440,
        "longitude": 43.61100267,
        "latitude": 3.8732007,
        "status": "Open",
        "Date": "01/02/2025",
        "Hour": "03:40:58"
    },
    {
        "name": "Gaumont-Circe",
        "type": "OffStreetParking",
        "availableSpotNumber": 500,
        "totalSpotNumber": 500,
        "longitude": 43.60495377,
        "latitude": 3.9178495,
        "status": "Open",
        "Date": "01/02/2025",
        "Hour": "03:40:58"
    },
    {
        "name": "Antigone",
        "type": "OffStreetParking",
        "availableSpotNumber": 150,
        "totalSpotNumber": 239,
        "longitude": 43.60871606,
        "latitude": 3.88881893,
        "status": "Open",
        "Date": "01/02/2025",
        "Hour": "04:11:58"
    },
    {
        "name": "Comedie",
        "type": "OffStreetParking",
        "availableSpotNumber": 470,
        "totalSpotNumber": 698,
        "longitude": 43.60856092,
        "latitude": 3.87976196,
        "status": "Open",
        "Date": "01/02/2025",
        "Hour": "04:11:58"
    },
    {
        "name": "Corum",
        "type": "OffStreetParking",
        "availableSpotNumber": 355,
        "totalSpotNumber": 490,
        "longitude": 43.61388821,
        "latitude": 3.88225773,
        "status": "Open",
        "Date": "01/02/2025",
        "Hour": "04:11:58"
    },
    {
        "name": "Europa",
        "type": "OffStreetParking",
        "availableSpotNumber": 489,
        "totalSpotNumber": 591,
        "longitude": 43.60784971,
        "latitude": 3.89253074,
        "status": "Open",
        "Date": "01/02/2025",
        "Hour": "04:11:58"
    },
    {
        "name": "Foch",
        "type": "OffStreetParking",
        "availableSpotNumber": 89,
        "totalSpotNumber": 598,
        "longitude": 43.61074912,
        "latitude": 3.87657084,
        "status": "Open",
        "Date": "01/02/2025",
        "Hour": "04:11:58"
    },
    {
        "name": "Gambetta",
        "type": "OffStreetParking",
        "availableSpotNumber": 216,
        "totalSpotNumber": 440,
        "longitude": 43.60695138,
        "latitude": 3.87137436,
        "status": "Open",
        "Date": "01/02/2025",
        "Hour": "04:11:58"
    },
    {
        "name": "Gare",
        "type": "OffStreetParking",
        "availableSpotNumber": 433,
        "totalSpotNumber": 653,
        "longitude": 43.604024,
        "latitude": 3.87891,
        "status": "Open",
        "Date": "01/02/2025",
        "Hour": "04:11:58"
    },
    {
        "name": "Triangle",
        "type": "OffStreetParking",
        "availableSpotNumber": 358,
        "totalSpotNumber": 434,
        "longitude": 43.60923384,
        "latitude": 3.88184418,
        "status": "Open",
        "Date": "01/02/2025",
        "Hour": "04:11:58"
    },
    {
        "name": "Pitot",
        "type": "OffStreetParking",
        "availableSpotNumber": 501,
        "totalSpotNumber": 587,
        "longitude": 43.61224494,
        "latitude": 3.87019117,
        "status": "Open",
        "Date": "01/02/2025",
        "Hour": "04:11:58"
    },
    {
        "name": "Circe",
        "type": "OffStreetParking",
        "availableSpotNumber": 1172,
        "totalSpotNumber": 1200,
        "longitude": 43.60495377,
        "latitude": 3.9178495,
        "status": "Open",
        "Date": "01/02/2025",
        "Hour": "04:11:58"
    },
    {
        "name": "Garcia Lorca",
        "type": "OffStreetParking",
        "availableSpotNumber": 329,
        "totalSpotNumber": 395,
        "longitude": 43.59098509,
        "latitude": 3.8907158,
        "status": "Open",
        "Date": "01/02/2025",
        "Hour": "04:11:58"
    },
    {
        "name": "Mosson",
        "type": "OffStreetParking",
        "availableSpotNumber": 350,
        "totalSpotNumber": 350,
        "longitude": 43.61623716,
        "latitude": 3.81966554,
        "status": "Open",
        "Date": "01/02/2025",
        "Hour": "04:11:58"
    },
    {
        "name": "Sabines",
        "type": "OffStreetParking",
        "availableSpotNumber": 195,
        "totalSpotNumber": 220,
        "longitude": 43.58383263,
        "latitude": 3.8602246,
        "status": "Open",
        "Date": "01/02/2025",
        "Hour": "04:11:58"
    },
    {
        "name": "Sablassou",
        "type": "OffStreetParking",
        "availableSpotNumber": 360,
        "totalSpotNumber": 372,
        "longitude": 43.63419194,
        "latitude": 3.92229536,
        "status": "Open",
        "Date": "01/02/2025",
        "Hour": "04:11:58"
    },
    {
        "name": "Saint Jean Le Sec",
        "type": "OffStreetParking",
        "availableSpotNumber": 265,
        "totalSpotNumber": 285,
        "longitude": 43.57082225,
        "latitude": 3.8379312,
        "status": "Open",
        "Date": "01/02/2025",
        "Hour": "04:11:58"
    },
    {
        "name": "Euromedecine",
        "type": "OffStreetParking",
        "availableSpotNumber": 207,
        "totalSpotNumber": 255,
        "longitude": 43.63895359,
        "latitude": 3.82772365,
        "status": "Open",
        "Date": "01/02/2025",
        "Hour": "04:11:58"
    },
    {
        "name": "Occitanie",
        "type": "OffStreetParking",
        "availableSpotNumber": 480,
        "totalSpotNumber": 615,
        "longitude": 43.63456232,
        "latitude": 3.84859796,
        "status": "Open",
        "Date": "01/02/2025",
        "Hour": "04:11:58"
    },
    {
        "name": "Vicarello",
        "type": "OffStreetParking",
        "availableSpotNumber": 55,
        "totalSpotNumber": 64,
        "longitude": 43.63286,
        "latitude": 3.898411,
        "status": "Open",
        "Date": "01/02/2025",
        "Hour": "04:11:58"
    },
    {
        "name": "Gaumont EST",
        "type": "OffStreetParking",
        "availableSpotNumber": 109,
        "totalSpotNumber": 109,
        "longitude": 43.604526,
        "latitude": 3.91529,
        "status": "Open",
        "Date": "01/02/2025",
        "Hour": "04:11:58"
    },
    {
        "name": "Gaumont OUEST",
        "type": "OffStreetParking",
        "availableSpotNumber": 250,
        "totalSpotNumber": 250,
        "longitude": 43.604824,
        "latitude": 3.914158,
        "status": "Open",
        "Date": "01/02/2025",
        "Hour": "04:11:58"
    },
    {
        "name": "Charles de Gaulle",
        "type": "OffStreetParking",
        "availableSpotNumber": 76,
        "totalSpotNumber": 260,
        "longitude": 43.6285421,
        "latitude": 3.8977621,
        "status": "Open",
        "Date": "01/02/2025",
        "Hour": "04:11:58"
    },
    {
        "name": "Polygone",
        "type": "OffStreetParking",
        "availableSpotNumber": 1691,
        "totalSpotNumber": 1911,
        "longitude": 43.607697,
        "latitude": 3.88515,
        "status": "Open",
        "Date": "01/02/2025",
        "Hour": "04:11:58"
    },
    {
        "name": "Arc de Triomphe",
        "type": "OffStreetParking",
        "availableSpotNumber": 139,
        "totalSpotNumber": 440,
        "longitude": 43.61100267,
        "latitude": 3.8732007,
        "status": "Open",
        "Date": "01/02/2025",
        "Hour": "04:11:58"
    },
    {
        "name": "Gaumont-Circe",
        "type": "OffStreetParking",
        "availableSpotNumber": 500,
        "totalSpotNumber": 500,
        "longitude": 43.60495377,
        "latitude": 3.9178495,
        "status": "Open",
        "Date": "01/02/2025",
        "Hour": "04:11:58"
    },
    {
        "name": "Antigone",
        "type": "OffStreetParking",
        "availableSpotNumber": 150,
        "totalSpotNumber": 239,
        "longitude": 43.60871606,
        "latitude": 3.88881893,
        "status": "Open",
        "Date": "01/02/2025",
        "Hour": "04:35:12"
    },
    {
        "name": "Comedie",
        "type": "OffStreetParking",
        "availableSpotNumber": 479,
        "totalSpotNumber": 698,
        "longitude": 43.60856092,
        "latitude": 3.87976196,
        "status": "Open",
        "Date": "01/02/2025",
        "Hour": "04:35:12"
    },
    {
        "name": "Corum",
        "type": "OffStreetParking",
        "availableSpotNumber": 357,
        "totalSpotNumber": 490,
        "longitude": 43.61388821,
        "latitude": 3.88225773,
        "status": "Open",
        "Date": "01/02/2025",
        "Hour": "04:35:12"
    },
    {
        "name": "Europa",
        "type": "OffStreetParking",
        "availableSpotNumber": 489,
        "totalSpotNumber": 591,
        "longitude": 43.60784971,
        "latitude": 3.89253074,
        "status": "Open",
        "Date": "01/02/2025",
        "Hour": "04:35:12"
    },
    {
        "name": "Foch",
        "type": "OffStreetParking",
        "availableSpotNumber": 89,
        "totalSpotNumber": 598,
        "longitude": 43.61074912,
        "latitude": 3.87657084,
        "status": "Open",
        "Date": "01/02/2025",
        "Hour": "04:35:12"
    },
    {
        "name": "Gambetta",
        "type": "OffStreetParking",
        "availableSpotNumber": 216,
        "totalSpotNumber": 440,
        "longitude": 43.60695138,
        "latitude": 3.87137436,
        "status": "Open",
        "Date": "01/02/2025",
        "Hour": "04:35:12"
    },
    {
        "name": "Gare",
        "type": "OffStreetParking",
        "availableSpotNumber": 434,
        "totalSpotNumber": 653,
        "longitude": 43.604024,
        "latitude": 3.87891,
        "status": "Open",
        "Date": "01/02/2025",
        "Hour": "04:35:12"
    },
    {
        "name": "Triangle",
        "type": "OffStreetParking",
        "availableSpotNumber": 360,
        "totalSpotNumber": 434,
        "longitude": 43.60923384,
        "latitude": 3.88184418,
        "status": "Open",
        "Date": "01/02/2025",
        "Hour": "04:35:12"
    },
    {
        "name": "Pitot",
        "type": "OffStreetParking",
        "availableSpotNumber": 505,
        "totalSpotNumber": 587,
        "longitude": 43.61224494,
        "latitude": 3.87019117,
        "status": "Open",
        "Date": "01/02/2025",
        "Hour": "04:35:12"
    },
    {
        "name": "Circe",
        "type": "OffStreetParking",
        "availableSpotNumber": 1172,
        "totalSpotNumber": 1200,
        "longitude": 43.60495377,
        "latitude": 3.9178495,
        "status": "Open",
        "Date": "01/02/2025",
        "Hour": "04:35:12"
    },
    {
        "name": "Garcia Lorca",
        "type": "OffStreetParking",
        "availableSpotNumber": 329,
        "totalSpotNumber": 395,
        "longitude": 43.59098509,
        "latitude": 3.8907158,
        "status": "Open",
        "Date": "01/02/2025",
        "Hour": "04:35:12"
    },
    {
        "name": "Mosson",
        "type": "OffStreetParking",
        "availableSpotNumber": 350,
        "totalSpotNumber": 350,
        "longitude": 43.61623716,
        "latitude": 3.81966554,
        "status": "Open",
        "Date": "01/02/2025",
        "Hour": "04:35:12"
    },
    {
        "name": "Sabines",
        "type": "OffStreetParking",
        "availableSpotNumber": 194,
        "totalSpotNumber": 220,
        "longitude": 43.58383263,
        "latitude": 3.8602246,
        "status": "Open",
        "Date": "01/02/2025",
        "Hour": "04:35:12"
    },
    {
        "name": "Sablassou",
        "type": "OffStreetParking",
        "availableSpotNumber": 360,
        "totalSpotNumber": 372,
        "longitude": 43.63419194,
        "latitude": 3.92229536,
        "status": "Open",
        "Date": "01/02/2025",
        "Hour": "04:35:12"
    },
    {
        "name": "Saint Jean Le Sec",
        "type": "OffStreetParking",
        "availableSpotNumber": 265,
        "totalSpotNumber": 285,
        "longitude": 43.57082225,
        "latitude": 3.8379312,
        "status": "Open",
        "Date": "01/02/2025",
        "Hour": "04:35:12"
    },
    {
        "name": "Euromedecine",
        "type": "OffStreetParking",
        "availableSpotNumber": 207,
        "totalSpotNumber": 255,
        "longitude": 43.63895359,
        "latitude": 3.82772365,
        "status": "Open",
        "Date": "01/02/2025",
        "Hour": "04:35:12"
    },
    {
        "name": "Occitanie",
        "type": "OffStreetParking",
        "availableSpotNumber": 480,
        "totalSpotNumber": 615,
        "longitude": 43.63456232,
        "latitude": 3.84859796,
        "status": "Open",
        "Date": "01/02/2025",
        "Hour": "04:35:12"
    },
    {
        "name": "Vicarello",
        "type": "OffStreetParking",
        "availableSpotNumber": 55,
        "totalSpotNumber": 64,
        "longitude": 43.63286,
        "latitude": 3.898411,
        "status": "Open",
        "Date": "01/02/2025",
        "Hour": "04:35:12"
    },
    {
        "name": "Gaumont EST",
        "type": "OffStreetParking",
        "availableSpotNumber": 109,
        "totalSpotNumber": 109,
        "longitude": 43.604526,
        "latitude": 3.91529,
        "status": "Open",
        "Date": "01/02/2025",
        "Hour": "04:35:12"
    },
    {
        "name": "Gaumont OUEST",
        "type": "OffStreetParking",
        "availableSpotNumber": 250,
        "totalSpotNumber": 250,
        "longitude": 43.604824,
        "latitude": 3.914158,
        "status": "Open",
        "Date": "01/02/2025",
        "Hour": "04:35:12"
    },
    {
        "name": "Charles de Gaulle",
        "type": "OffStreetParking",
        "availableSpotNumber": 76,
        "totalSpotNumber": 260,
        "longitude": 43.6285421,
        "latitude": 3.8977621,
        "status": "Open",
        "Date": "01/02/2025",
        "Hour": "04:35:12"
    },
    {
        "name": "Polygone",
        "type": "OffStreetParking",
        "availableSpotNumber": 1688,
        "totalSpotNumber": 1911,
        "longitude": 43.607697,
        "latitude": 3.88515,
        "status": "Open",
        "Date": "01/02/2025",
        "Hour": "04:35:12"
    },
    {
        "name": "Arc de Triomphe",
        "type": "OffStreetParking",
        "availableSpotNumber": 139,
        "totalSpotNumber": 440,
        "longitude": 43.61100267,
        "latitude": 3.8732007,
        "status": "Open",
        "Date": "01/02/2025",
        "Hour": "04:35:12"
    },
    {
        "name": "Gaumont-Circe",
        "type": "OffStreetParking",
        "availableSpotNumber": 500,
        "totalSpotNumber": 500,
        "longitude": 43.60495377,
        "latitude": 3.9178495,
        "status": "Open",
        "Date": "01/02/2025",
        "Hour": "04:35:12"
    },
    {
        "name": "Antigone",
        "type": "OffStreetParking",
        "availableSpotNumber": 150,
        "totalSpotNumber": 239,
        "longitude": 43.60871606,
        "latitude": 3.88881893,
        "status": "Open",
        "Date": "01/02/2025",
        "Hour": "04:46:39"
    },
    {
        "name": "Comedie",
        "type": "OffStreetParking",
        "availableSpotNumber": 484,
        "totalSpotNumber": 698,
        "longitude": 43.60856092,
        "latitude": 3.87976196,
        "status": "Open",
        "Date": "01/02/2025",
        "Hour": "04:46:39"
    },
    {
        "name": "Corum",
        "type": "OffStreetParking",
        "availableSpotNumber": 357,
        "totalSpotNumber": 490,
        "longitude": 43.61388821,
        "latitude": 3.88225773,
        "status": "Open",
        "Date": "01/02/2025",
        "Hour": "04:46:39"
    },
    {
        "name": "Europa",
        "type": "OffStreetParking",
        "availableSpotNumber": 489,
        "totalSpotNumber": 591,
        "longitude": 43.60784971,
        "latitude": 3.89253074,
        "status": "Open",
        "Date": "01/02/2025",
        "Hour": "04:46:39"
    },
    {
        "name": "Foch",
        "type": "OffStreetParking",
        "availableSpotNumber": 89,
        "totalSpotNumber": 598,
        "longitude": 43.61074912,
        "latitude": 3.87657084,
        "status": "Open",
        "Date": "01/02/2025",
        "Hour": "04:46:39"
    },
    {
        "name": "Gambetta",
        "type": "OffStreetParking",
        "availableSpotNumber": 216,
        "totalSpotNumber": 440,
        "longitude": 43.60695138,
        "latitude": 3.87137436,
        "status": "Open",
        "Date": "01/02/2025",
        "Hour": "04:46:39"
    },
    {
        "name": "Gare",
        "type": "OffStreetParking",
        "availableSpotNumber": 434,
        "totalSpotNumber": 653,
        "longitude": 43.604024,
        "latitude": 3.87891,
        "status": "Open",
        "Date": "01/02/2025",
        "Hour": "04:46:39"
    },
    {
        "name": "Triangle",
        "type": "OffStreetParking",
        "availableSpotNumber": 360,
        "totalSpotNumber": 434,
        "longitude": 43.60923384,
        "latitude": 3.88184418,
        "status": "Open",
        "Date": "01/02/2025",
        "Hour": "04:46:39"
    },
    {
        "name": "Pitot",
        "type": "OffStreetParking",
        "availableSpotNumber": 505,
        "totalSpotNumber": 587,
        "longitude": 43.61224494,
        "latitude": 3.87019117,
        "status": "Open",
        "Date": "01/02/2025",
        "Hour": "04:46:39"
    },
    {
        "name": "Circe",
        "type": "OffStreetParking",
        "availableSpotNumber": 1172,
        "totalSpotNumber": 1200,
        "longitude": 43.60495377,
        "latitude": 3.9178495,
        "status": "Open",
        "Date": "01/02/2025",
        "Hour": "04:46:39"
    },
    {
        "name": "Garcia Lorca",
        "type": "OffStreetParking",
        "availableSpotNumber": 329,
        "totalSpotNumber": 395,
        "longitude": 43.59098509,
        "latitude": 3.8907158,
        "status": "Open",
        "Date": "01/02/2025",
        "Hour": "04:46:39"
    },
    {
        "name": "Mosson",
        "type": "OffStreetParking",
        "availableSpotNumber": 350,
        "totalSpotNumber": 350,
        "longitude": 43.61623716,
        "latitude": 3.81966554,
        "status": "Open",
        "Date": "01/02/2025",
        "Hour": "04:46:39"
    },
    {
        "name": "Sabines",
        "type": "OffStreetParking",
        "availableSpotNumber": 194,
        "totalSpotNumber": 220,
        "longitude": 43.58383263,
        "latitude": 3.8602246,
        "status": "Open",
        "Date": "01/02/2025",
        "Hour": "04:46:39"
    },
    {
        "name": "Sablassou",
        "type": "OffStreetParking",
        "availableSpotNumber": 360,
        "totalSpotNumber": 372,
        "longitude": 43.63419194,
        "latitude": 3.92229536,
        "status": "Open",
        "Date": "01/02/2025",
        "Hour": "04:46:39"
    },
    {
        "name": "Saint Jean Le Sec",
        "type": "OffStreetParking",
        "availableSpotNumber": 265,
        "totalSpotNumber": 285,
        "longitude": 43.57082225,
        "latitude": 3.8379312,
        "status": "Open",
        "Date": "01/02/2025",
        "Hour": "04:46:39"
    },
    {
        "name": "Euromedecine",
        "type": "OffStreetParking",
        "availableSpotNumber": 207,
        "totalSpotNumber": 255,
        "longitude": 43.63895359,
        "latitude": 3.82772365,
        "status": "Open",
        "Date": "01/02/2025",
        "Hour": "04:46:39"
    },
    {
        "name": "Occitanie",
        "type": "OffStreetParking",
        "availableSpotNumber": 480,
        "totalSpotNumber": 615,
        "longitude": 43.63456232,
        "latitude": 3.84859796,
        "status": "Open",
        "Date": "01/02/2025",
        "Hour": "04:46:39"
    },
    {
        "name": "Vicarello",
        "type": "OffStreetParking",
        "availableSpotNumber": 55,
        "totalSpotNumber": 64,
        "longitude": 43.63286,
        "latitude": 3.898411,
        "status": "Open",
        "Date": "01/02/2025",
        "Hour": "04:46:39"
    },
    {
        "name": "Gaumont EST",
        "type": "OffStreetParking",
        "availableSpotNumber": 109,
        "totalSpotNumber": 109,
        "longitude": 43.604526,
        "latitude": 3.91529,
        "status": "Open",
        "Date": "01/02/2025",
        "Hour": "04:46:39"
    },
    {
        "name": "Gaumont OUEST",
        "type": "OffStreetParking",
        "availableSpotNumber": 250,
        "totalSpotNumber": 250,
        "longitude": 43.604824,
        "latitude": 3.914158,
        "status": "Open",
        "Date": "01/02/2025",
        "Hour": "04:46:39"
    },
    {
        "name": "Charles de Gaulle",
        "type": "OffStreetParking",
        "availableSpotNumber": 76,
        "totalSpotNumber": 260,
        "longitude": 43.6285421,
        "latitude": 3.8977621,
        "status": "Open",
        "Date": "01/02/2025",
        "Hour": "04:46:39"
    },
    {
        "name": "Polygone",
        "type": "OffStreetParking",
        "availableSpotNumber": 1684,
        "totalSpotNumber": 1911,
        "longitude": 43.607697,
        "latitude": 3.88515,
        "status": "Open",
        "Date": "01/02/2025",
        "Hour": "04:46:39"
    },
    {
        "name": "Arc de Triomphe",
        "type": "OffStreetParking",
        "availableSpotNumber": 139,
        "totalSpotNumber": 440,
        "longitude": 43.61100267,
        "latitude": 3.8732007,
        "status": "Open",
        "Date": "01/02/2025",
        "Hour": "04:46:39"
    },
    {
        "name": "Gaumont-Circe",
        "type": "OffStreetParking",
        "availableSpotNumber": 500,
        "totalSpotNumber": 500,
        "longitude": 43.60495377,
        "latitude": 3.9178495,
        "status": "Open",
        "Date": "01/02/2025",
        "Hour": "04:46:39"
    },
    {
        "name": "Antigone",
        "type": "OffStreetParking",
        "availableSpotNumber": 150,
        "totalSpotNumber": 239,
        "longitude": 43.60871606,
        "latitude": 3.88881893,
        "status": "Open",
        "Date": "01/02/2025",
        "Hour": "04:57:53"
    },
    {
        "name": "Comedie",
        "type": "OffStreetParking",
        "availableSpotNumber": 489,
        "totalSpotNumber": 698,
        "longitude": 43.60856092,
        "latitude": 3.87976196,
        "status": "Open",
        "Date": "01/02/2025",
        "Hour": "04:57:53"
    },
    {
        "name": "Corum",
        "type": "OffStreetParking",
        "availableSpotNumber": 357,
        "totalSpotNumber": 490,
        "longitude": 43.61388821,
        "latitude": 3.88225773,
        "status": "Open",
        "Date": "01/02/2025",
        "Hour": "04:57:53"
    },
    {
        "name": "Europa",
        "type": "OffStreetParking",
        "availableSpotNumber": 489,
        "totalSpotNumber": 591,
        "longitude": 43.60784971,
        "latitude": 3.89253074,
        "status": "Open",
        "Date": "01/02/2025",
        "Hour": "04:57:53"
    },
    {
        "name": "Foch",
        "type": "OffStreetParking",
        "availableSpotNumber": 89,
        "totalSpotNumber": 598,
        "longitude": 43.61074912,
        "latitude": 3.87657084,
        "status": "Open",
        "Date": "01/02/2025",
        "Hour": "04:57:53"
    },
    {
        "name": "Gambetta",
        "type": "OffStreetParking",
        "availableSpotNumber": 216,
        "totalSpotNumber": 440,
        "longitude": 43.60695138,
        "latitude": 3.87137436,
        "status": "Open",
        "Date": "01/02/2025",
        "Hour": "04:57:53"
    },
    {
        "name": "Gare",
        "type": "OffStreetParking",
        "availableSpotNumber": 434,
        "totalSpotNumber": 653,
        "longitude": 43.604024,
        "latitude": 3.87891,
        "status": "Open",
        "Date": "01/02/2025",
        "Hour": "04:57:53"
    },
    {
        "name": "Triangle",
        "type": "OffStreetParking",
        "availableSpotNumber": 360,
        "totalSpotNumber": 434,
        "longitude": 43.60923384,
        "latitude": 3.88184418,
        "status": "Open",
        "Date": "01/02/2025",
        "Hour": "04:57:53"
    },
    {
        "name": "Pitot",
        "type": "OffStreetParking",
        "availableSpotNumber": 505,
        "totalSpotNumber": 587,
        "longitude": 43.61224494,
        "latitude": 3.87019117,
        "status": "Open",
        "Date": "01/02/2025",
        "Hour": "04:57:53"
    },
    {
        "name": "Circe",
        "type": "OffStreetParking",
        "availableSpotNumber": 1172,
        "totalSpotNumber": 1200,
        "longitude": 43.60495377,
        "latitude": 3.9178495,
        "status": "Open",
        "Date": "01/02/2025",
        "Hour": "04:57:53"
    },
    {
        "name": "Garcia Lorca",
        "type": "OffStreetParking",
        "availableSpotNumber": 329,
        "totalSpotNumber": 395,
        "longitude": 43.59098509,
        "latitude": 3.8907158,
        "status": "Open",
        "Date": "01/02/2025",
        "Hour": "04:57:53"
    },
    {
        "name": "Mosson",
        "type": "OffStreetParking",
        "availableSpotNumber": 349,
        "totalSpotNumber": 350,
        "longitude": 43.61623716,
        "latitude": 3.81966554,
        "status": "Open",
        "Date": "01/02/2025",
        "Hour": "04:57:53"
    },
    {
        "name": "Sabines",
        "type": "OffStreetParking",
        "availableSpotNumber": 194,
        "totalSpotNumber": 220,
        "longitude": 43.58383263,
        "latitude": 3.8602246,
        "status": "Open",
        "Date": "01/02/2025",
        "Hour": "04:57:53"
    },
    {
        "name": "Sablassou",
        "type": "OffStreetParking",
        "availableSpotNumber": 359,
        "totalSpotNumber": 372,
        "longitude": 43.63419194,
        "latitude": 3.92229536,
        "status": "Open",
        "Date": "01/02/2025",
        "Hour": "04:57:53"
    },
    {
        "name": "Saint Jean Le Sec",
        "type": "OffStreetParking",
        "availableSpotNumber": 265,
        "totalSpotNumber": 285,
        "longitude": 43.57082225,
        "latitude": 3.8379312,
        "status": "Open",
        "Date": "01/02/2025",
        "Hour": "04:57:53"
    },
    {
        "name": "Euromedecine",
        "type": "OffStreetParking",
        "availableSpotNumber": 207,
        "totalSpotNumber": 255,
        "longitude": 43.63895359,
        "latitude": 3.82772365,
        "status": "Open",
        "Date": "01/02/2025",
        "Hour": "04:57:53"
    },
    {
        "name": "Occitanie",
        "type": "OffStreetParking",
        "availableSpotNumber": 480,
        "totalSpotNumber": 615,
        "longitude": 43.63456232,
        "latitude": 3.84859796,
        "status": "Open",
        "Date": "01/02/2025",
        "Hour": "04:57:53"
    },
    {
        "name": "Vicarello",
        "type": "OffStreetParking",
        "availableSpotNumber": 55,
        "totalSpotNumber": 64,
        "longitude": 43.63286,
        "latitude": 3.898411,
        "status": "Open",
        "Date": "01/02/2025",
        "Hour": "04:57:53"
    },
    {
        "name": "Gaumont EST",
        "type": "OffStreetParking",
        "availableSpotNumber": 109,
        "totalSpotNumber": 109,
        "longitude": 43.604526,
        "latitude": 3.91529,
        "status": "Open",
        "Date": "01/02/2025",
        "Hour": "04:57:53"
    },
    {
        "name": "Gaumont OUEST",
        "type": "OffStreetParking",
        "availableSpotNumber": 250,
        "totalSpotNumber": 250,
        "longitude": 43.604824,
        "latitude": 3.914158,
        "status": "Open",
        "Date": "01/02/2025",
        "Hour": "04:57:53"
    },
    {
        "name": "Charles de Gaulle",
        "type": "OffStreetParking",
        "availableSpotNumber": 76,
        "totalSpotNumber": 260,
        "longitude": 43.6285421,
        "latitude": 3.8977621,
        "status": "Open",
        "Date": "01/02/2025",
        "Hour": "04:57:53"
    },
    {
        "name": "Polygone",
        "type": "OffStreetParking",
        "availableSpotNumber": 1688,
        "totalSpotNumber": 1911,
        "longitude": 43.607697,
        "latitude": 3.88515,
        "status": "Open",
        "Date": "01/02/2025",
        "Hour": "04:57:53"
    },
    {
        "name": "Arc de Triomphe",
        "type": "OffStreetParking",
        "availableSpotNumber": 139,
        "totalSpotNumber": 440,
        "longitude": 43.61100267,
        "latitude": 3.8732007,
        "status": "Open",
        "Date": "01/02/2025",
        "Hour": "04:57:53"
    },
    {
        "name": "Gaumont-Circe",
        "type": "OffStreetParking",
        "availableSpotNumber": 500,
        "totalSpotNumber": 500,
        "longitude": 43.60495377,
        "latitude": 3.9178495,
        "status": "Open",
        "Date": "01/02/2025",
        "Hour": "04:57:53"
    },
    {
        "name": "Antigone",
        "type": "OffStreetParking",
        "availableSpotNumber": 150,
        "totalSpotNumber": 239,
        "longitude": 43.60871606,
        "latitude": 3.88881893,
        "status": "Open",
        "Date": "01/02/2025",
        "Hour": "05:25:55"
    },
    {
        "name": "Comedie",
        "type": "OffStreetParking",
        "availableSpotNumber": 496,
        "totalSpotNumber": 698,
        "longitude": 43.60856092,
        "latitude": 3.87976196,
        "status": "Open",
        "Date": "01/02/2025",
        "Hour": "05:25:55"
    },
    {
        "name": "Corum",
        "type": "OffStreetParking",
        "availableSpotNumber": 357,
        "totalSpotNumber": 490,
        "longitude": 43.61388821,
        "latitude": 3.88225773,
        "status": "Open",
        "Date": "01/02/2025",
        "Hour": "05:25:55"
    },
    {
        "name": "Europa",
        "type": "OffStreetParking",
        "availableSpotNumber": 488,
        "totalSpotNumber": 591,
        "longitude": 43.60784971,
        "latitude": 3.89253074,
        "status": "Open",
        "Date": "01/02/2025",
        "Hour": "05:25:55"
    },
    {
        "name": "Foch",
        "type": "OffStreetParking",
        "availableSpotNumber": 89,
        "totalSpotNumber": 598,
        "longitude": 43.61074912,
        "latitude": 3.87657084,
        "status": "Open",
        "Date": "01/02/2025",
        "Hour": "05:25:55"
    },
    {
        "name": "Gambetta",
        "type": "OffStreetParking",
        "availableSpotNumber": 216,
        "totalSpotNumber": 440,
        "longitude": 43.60695138,
        "latitude": 3.87137436,
        "status": "Open",
        "Date": "01/02/2025",
        "Hour": "05:25:55"
    },
    {
        "name": "Gare",
        "type": "OffStreetParking",
        "availableSpotNumber": 434,
        "totalSpotNumber": 653,
        "longitude": 43.604024,
        "latitude": 3.87891,
        "status": "Open",
        "Date": "01/02/2025",
        "Hour": "05:25:55"
    },
    {
        "name": "Triangle",
        "type": "OffStreetParking",
        "availableSpotNumber": 362,
        "totalSpotNumber": 434,
        "longitude": 43.60923384,
        "latitude": 3.88184418,
        "status": "Open",
        "Date": "01/02/2025",
        "Hour": "05:25:55"
    },
    {
        "name": "Pitot",
        "type": "OffStreetParking",
        "availableSpotNumber": 506,
        "totalSpotNumber": 587,
        "longitude": 43.61224494,
        "latitude": 3.87019117,
        "status": "Open",
        "Date": "01/02/2025",
        "Hour": "05:25:55"
    },
    {
        "name": "Circe",
        "type": "OffStreetParking",
        "availableSpotNumber": 1172,
        "totalSpotNumber": 1200,
        "longitude": 43.60495377,
        "latitude": 3.9178495,
        "status": "Open",
        "Date": "01/02/2025",
        "Hour": "05:25:55"
    },
    {
        "name": "Garcia Lorca",
        "type": "OffStreetParking",
        "availableSpotNumber": 329,
        "totalSpotNumber": 395,
        "longitude": 43.59098509,
        "latitude": 3.8907158,
        "status": "Open",
        "Date": "01/02/2025",
        "Hour": "05:25:55"
    },
    {
        "name": "Mosson",
        "type": "OffStreetParking",
        "availableSpotNumber": 348,
        "totalSpotNumber": 350,
        "longitude": 43.61623716,
        "latitude": 3.81966554,
        "status": "Open",
        "Date": "01/02/2025",
        "Hour": "05:25:55"
    },
    {
        "name": "Sabines",
        "type": "OffStreetParking",
        "availableSpotNumber": 193,
        "totalSpotNumber": 220,
        "longitude": 43.58383263,
        "latitude": 3.8602246,
        "status": "Open",
        "Date": "01/02/2025",
        "Hour": "05:25:55"
    },
    {
        "name": "Sablassou",
        "type": "OffStreetParking",
        "availableSpotNumber": 359,
        "totalSpotNumber": 372,
        "longitude": 43.63419194,
        "latitude": 3.92229536,
        "status": "Open",
        "Date": "01/02/2025",
        "Hour": "05:25:55"
    },
    {
        "name": "Saint Jean Le Sec",
        "type": "OffStreetParking",
        "availableSpotNumber": 265,
        "totalSpotNumber": 285,
        "longitude": 43.57082225,
        "latitude": 3.8379312,
        "status": "Open",
        "Date": "01/02/2025",
        "Hour": "05:25:55"
    },
    {
        "name": "Euromedecine",
        "type": "OffStreetParking",
        "availableSpotNumber": 207,
        "totalSpotNumber": 255,
        "longitude": 43.63895359,
        "latitude": 3.82772365,
        "status": "Open",
        "Date": "01/02/2025",
        "Hour": "05:25:55"
    },
    {
        "name": "Occitanie",
        "type": "OffStreetParking",
        "availableSpotNumber": 480,
        "totalSpotNumber": 615,
        "longitude": 43.63456232,
        "latitude": 3.84859796,
        "status": "Open",
        "Date": "01/02/2025",
        "Hour": "05:25:55"
    },
    {
        "name": "Vicarello",
        "type": "OffStreetParking",
        "availableSpotNumber": 55,
        "totalSpotNumber": 64,
        "longitude": 43.63286,
        "latitude": 3.898411,
        "status": "Open",
        "Date": "01/02/2025",
        "Hour": "05:25:55"
    },
    {
        "name": "Gaumont EST",
        "type": "OffStreetParking",
        "availableSpotNumber": 109,
        "totalSpotNumber": 109,
        "longitude": 43.604526,
        "latitude": 3.91529,
        "status": "Open",
        "Date": "01/02/2025",
        "Hour": "05:25:55"
    },
    {
        "name": "Gaumont OUEST",
        "type": "OffStreetParking",
        "availableSpotNumber": 248,
        "totalSpotNumber": 250,
        "longitude": 43.604824,
        "latitude": 3.914158,
        "status": "Open",
        "Date": "01/02/2025",
        "Hour": "05:25:55"
    },
    {
        "name": "Charles de Gaulle",
        "type": "OffStreetParking",
        "availableSpotNumber": 77,
        "totalSpotNumber": 260,
        "longitude": 43.6285421,
        "latitude": 3.8977621,
        "status": "Open",
        "Date": "01/02/2025",
        "Hour": "05:25:55"
    },
    {
        "name": "Polygone",
        "type": "OffStreetParking",
        "availableSpotNumber": 1690,
        "totalSpotNumber": 1911,
        "longitude": 43.607697,
        "latitude": 3.88515,
        "status": "Open",
        "Date": "01/02/2025",
        "Hour": "05:25:55"
    },
    {
        "name": "Arc de Triomphe",
        "type": "OffStreetParking",
        "availableSpotNumber": 139,
        "totalSpotNumber": 440,
        "longitude": 43.61100267,
        "latitude": 3.8732007,
        "status": "Open",
        "Date": "01/02/2025",
        "Hour": "05:25:55"
    },
    {
        "name": "Gaumont-Circe",
        "type": "OffStreetParking",
        "availableSpotNumber": 500,
        "totalSpotNumber": 500,
        "longitude": 43.60495377,
        "latitude": 3.9178495,
        "status": "Open",
        "Date": "01/02/2025",
        "Hour": "05:25:55"
    },
    {
        "name": "Antigone",
        "type": "OffStreetParking",
        "availableSpotNumber": 150,
        "totalSpotNumber": 239,
        "longitude": 43.60871606,
        "latitude": 3.88881893,
        "status": "Open",
        "Date": "01/02/2025",
        "Hour": "05:41:07"
    },
    {
        "name": "Comedie",
        "type": "OffStreetParking",
        "availableSpotNumber": 500,
        "totalSpotNumber": 698,
        "longitude": 43.60856092,
        "latitude": 3.87976196,
        "status": "Open",
        "Date": "01/02/2025",
        "Hour": "05:41:07"
    },
    {
        "name": "Corum",
        "type": "OffStreetParking",
        "availableSpotNumber": 358,
        "totalSpotNumber": 490,
        "longitude": 43.61388821,
        "latitude": 3.88225773,
        "status": "Open",
        "Date": "01/02/2025",
        "Hour": "05:41:07"
    },
    {
        "name": "Europa",
        "type": "OffStreetParking",
        "availableSpotNumber": 488,
        "totalSpotNumber": 591,
        "longitude": 43.60784971,
        "latitude": 3.89253074,
        "status": "Open",
        "Date": "01/02/2025",
        "Hour": "05:41:07"
    },
    {
        "name": "Foch",
        "type": "OffStreetParking",
        "availableSpotNumber": 89,
        "totalSpotNumber": 598,
        "longitude": 43.61074912,
        "latitude": 3.87657084,
        "status": "Open",
        "Date": "01/02/2025",
        "Hour": "05:41:07"
    },
    {
        "name": "Gambetta",
        "type": "OffStreetParking",
        "availableSpotNumber": 216,
        "totalSpotNumber": 440,
        "longitude": 43.60695138,
        "latitude": 3.87137436,
        "status": "Open",
        "Date": "01/02/2025",
        "Hour": "05:41:07"
    },
    {
        "name": "Gare",
        "type": "OffStreetParking",
        "availableSpotNumber": 434,
        "totalSpotNumber": 653,
        "longitude": 43.604024,
        "latitude": 3.87891,
        "status": "Open",
        "Date": "01/02/2025",
        "Hour": "05:41:07"
    },
    {
        "name": "Triangle",
        "type": "OffStreetParking",
        "availableSpotNumber": 362,
        "totalSpotNumber": 434,
        "longitude": 43.60923384,
        "latitude": 3.88184418,
        "status": "Open",
        "Date": "01/02/2025",
        "Hour": "05:41:07"
    },
    {
        "name": "Pitot",
        "type": "OffStreetParking",
        "availableSpotNumber": 506,
        "totalSpotNumber": 587,
        "longitude": 43.61224494,
        "latitude": 3.87019117,
        "status": "Open",
        "Date": "01/02/2025",
        "Hour": "05:41:07"
    },
    {
        "name": "Circe",
        "type": "OffStreetParking",
        "availableSpotNumber": 1171,
        "totalSpotNumber": 1200,
        "longitude": 43.60495377,
        "latitude": 3.9178495,
        "status": "Open",
        "Date": "01/02/2025",
        "Hour": "05:41:07"
    },
    {
        "name": "Garcia Lorca",
        "type": "OffStreetParking",
        "availableSpotNumber": 329,
        "totalSpotNumber": 395,
        "longitude": 43.59098509,
        "latitude": 3.8907158,
        "status": "Open",
        "Date": "01/02/2025",
        "Hour": "05:41:07"
    },
    {
        "name": "Mosson",
        "type": "OffStreetParking",
        "availableSpotNumber": 348,
        "totalSpotNumber": 350,
        "longitude": 43.61623716,
        "latitude": 3.81966554,
        "status": "Open",
        "Date": "01/02/2025",
        "Hour": "05:41:07"
    },
    {
        "name": "Sabines",
        "type": "OffStreetParking",
        "availableSpotNumber": 193,
        "totalSpotNumber": 220,
        "longitude": 43.58383263,
        "latitude": 3.8602246,
        "status": "Open",
        "Date": "01/02/2025",
        "Hour": "05:41:07"
    },
    {
        "name": "Sablassou",
        "type": "OffStreetParking",
        "availableSpotNumber": 358,
        "totalSpotNumber": 372,
        "longitude": 43.63419194,
        "latitude": 3.92229536,
        "status": "Open",
        "Date": "01/02/2025",
        "Hour": "05:41:07"
    },
    {
        "name": "Saint Jean Le Sec",
        "type": "OffStreetParking",
        "availableSpotNumber": 265,
        "totalSpotNumber": 285,
        "longitude": 43.57082225,
        "latitude": 3.8379312,
        "status": "Open",
        "Date": "01/02/2025",
        "Hour": "05:41:07"
    },
    {
        "name": "Euromedecine",
        "type": "OffStreetParking",
        "availableSpotNumber": 207,
        "totalSpotNumber": 255,
        "longitude": 43.63895359,
        "latitude": 3.82772365,
        "status": "Open",
        "Date": "01/02/2025",
        "Hour": "05:41:07"
    },
    {
        "name": "Occitanie",
        "type": "OffStreetParking",
        "availableSpotNumber": 480,
        "totalSpotNumber": 615,
        "longitude": 43.63456232,
        "latitude": 3.84859796,
        "status": "Open",
        "Date": "01/02/2025",
        "Hour": "05:41:07"
    },
    {
        "name": "Vicarello",
        "type": "OffStreetParking",
        "availableSpotNumber": 55,
        "totalSpotNumber": 64,
        "longitude": 43.63286,
        "latitude": 3.898411,
        "status": "Open",
        "Date": "01/02/2025",
        "Hour": "05:41:07"
    },
    {
        "name": "Gaumont EST",
        "type": "OffStreetParking",
        "availableSpotNumber": 109,
        "totalSpotNumber": 109,
        "longitude": 43.604526,
        "latitude": 3.91529,
        "status": "Open",
        "Date": "01/02/2025",
        "Hour": "05:41:07"
    },
    {
        "name": "Gaumont OUEST",
        "type": "OffStreetParking",
        "availableSpotNumber": 248,
        "totalSpotNumber": 250,
        "longitude": 43.604824,
        "latitude": 3.914158,
        "status": "Open",
        "Date": "01/02/2025",
        "Hour": "05:41:07"
    },
    {
        "name": "Charles de Gaulle",
        "type": "OffStreetParking",
        "availableSpotNumber": 77,
        "totalSpotNumber": 260,
        "longitude": 43.6285421,
        "latitude": 3.8977621,
        "status": "Open",
        "Date": "01/02/2025",
        "Hour": "05:41:07"
    },
    {
        "name": "Polygone",
        "type": "OffStreetParking",
        "availableSpotNumber": 1696,
        "totalSpotNumber": 1911,
        "longitude": 43.607697,
        "latitude": 3.88515,
        "status": "Open",
        "Date": "01/02/2025",
        "Hour": "05:41:07"
    },
    {
        "name": "Arc de Triomphe",
        "type": "OffStreetParking",
        "availableSpotNumber": 139,
        "totalSpotNumber": 440,
        "longitude": 43.61100267,
        "latitude": 3.8732007,
        "status": "Open",
        "Date": "01/02/2025",
        "Hour": "05:41:07"
    },
    {
        "name": "Gaumont-Circe",
        "type": "OffStreetParking",
        "availableSpotNumber": 500,
        "totalSpotNumber": 500,
        "longitude": 43.60495377,
        "latitude": 3.9178495,
        "status": "Open",
        "Date": "01/02/2025",
        "Hour": "05:41:07"
    },
    {
        "name": "Antigone",
        "type": "OffStreetParking",
        "availableSpotNumber": 150,
        "totalSpotNumber": 239,
        "longitude": 43.60871606,
        "latitude": 3.88881893,
        "status": "Open",
        "Date": "01/02/2025",
        "Hour": "05:56:49"
    },
    {
        "name": "Comedie",
        "type": "OffStreetParking",
        "availableSpotNumber": 500,
        "totalSpotNumber": 698,
        "longitude": 43.60856092,
        "latitude": 3.87976196,
        "status": "Open",
        "Date": "01/02/2025",
        "Hour": "05:56:49"
    },
    {
        "name": "Corum",
        "type": "OffStreetParking",
        "availableSpotNumber": 358,
        "totalSpotNumber": 490,
        "longitude": 43.61388821,
        "latitude": 3.88225773,
        "status": "Open",
        "Date": "01/02/2025",
        "Hour": "05:56:49"
    },
    {
        "name": "Europa",
        "type": "OffStreetParking",
        "availableSpotNumber": 488,
        "totalSpotNumber": 591,
        "longitude": 43.60784971,
        "latitude": 3.89253074,
        "status": "Open",
        "Date": "01/02/2025",
        "Hour": "05:56:49"
    },
    {
        "name": "Foch",
        "type": "OffStreetParking",
        "availableSpotNumber": 89,
        "totalSpotNumber": 598,
        "longitude": 43.61074912,
        "latitude": 3.87657084,
        "status": "Open",
        "Date": "01/02/2025",
        "Hour": "05:56:49"
    },
    {
        "name": "Gambetta",
        "type": "OffStreetParking",
        "availableSpotNumber": 216,
        "totalSpotNumber": 440,
        "longitude": 43.60695138,
        "latitude": 3.87137436,
        "status": "Open",
        "Date": "01/02/2025",
        "Hour": "05:56:49"
    },
    {
        "name": "Gare",
        "type": "OffStreetParking",
        "availableSpotNumber": 430,
        "totalSpotNumber": 653,
        "longitude": 43.604024,
        "latitude": 3.87891,
        "status": "Open",
        "Date": "01/02/2025",
        "Hour": "05:56:49"
    },
    {
        "name": "Triangle",
        "type": "OffStreetParking",
        "availableSpotNumber": 362,
        "totalSpotNumber": 434,
        "longitude": 43.60923384,
        "latitude": 3.88184418,
        "status": "Open",
        "Date": "01/02/2025",
        "Hour": "05:56:49"
    },
    {
        "name": "Pitot",
        "type": "OffStreetParking",
        "availableSpotNumber": 506,
        "totalSpotNumber": 587,
        "longitude": 43.61224494,
        "latitude": 3.87019117,
        "status": "Open",
        "Date": "01/02/2025",
        "Hour": "05:56:49"
    },
    {
        "name": "Circe",
        "type": "OffStreetParking",
        "availableSpotNumber": 1171,
        "totalSpotNumber": 1200,
        "longitude": 43.60495377,
        "latitude": 3.9178495,
        "status": "Open",
        "Date": "01/02/2025",
        "Hour": "05:56:49"
    },
    {
        "name": "Garcia Lorca",
        "type": "OffStreetParking",
        "availableSpotNumber": 329,
        "totalSpotNumber": 395,
        "longitude": 43.59098509,
        "latitude": 3.8907158,
        "status": "Open",
        "Date": "01/02/2025",
        "Hour": "05:56:49"
    },
    {
        "name": "Mosson",
        "type": "OffStreetParking",
        "availableSpotNumber": 348,
        "totalSpotNumber": 350,
        "longitude": 43.61623716,
        "latitude": 3.81966554,
        "status": "Open",
        "Date": "01/02/2025",
        "Hour": "05:56:49"
    },
    {
        "name": "Sabines",
        "type": "OffStreetParking",
        "availableSpotNumber": 191,
        "totalSpotNumber": 220,
        "longitude": 43.58383263,
        "latitude": 3.8602246,
        "status": "Open",
        "Date": "01/02/2025",
        "Hour": "05:56:49"
    },
    {
        "name": "Sablassou",
        "type": "OffStreetParking",
        "availableSpotNumber": 358,
        "totalSpotNumber": 372,
        "longitude": 43.63419194,
        "latitude": 3.92229536,
        "status": "Open",
        "Date": "01/02/2025",
        "Hour": "05:56:49"
    },
    {
        "name": "Saint Jean Le Sec",
        "type": "OffStreetParking",
        "availableSpotNumber": 265,
        "totalSpotNumber": 285,
        "longitude": 43.57082225,
        "latitude": 3.8379312,
        "status": "Open",
        "Date": "01/02/2025",
        "Hour": "05:56:49"
    },
    {
        "name": "Euromedecine",
        "type": "OffStreetParking",
        "availableSpotNumber": 207,
        "totalSpotNumber": 255,
        "longitude": 43.63895359,
        "latitude": 3.82772365,
        "status": "Open",
        "Date": "01/02/2025",
        "Hour": "05:56:49"
    },
    {
        "name": "Occitanie",
        "type": "OffStreetParking",
        "availableSpotNumber": 480,
        "totalSpotNumber": 615,
        "longitude": 43.63456232,
        "latitude": 3.84859796,
        "status": "Open",
        "Date": "01/02/2025",
        "Hour": "05:56:49"
    },
    {
        "name": "Vicarello",
        "type": "OffStreetParking",
        "availableSpotNumber": 55,
        "totalSpotNumber": 64,
        "longitude": 43.63286,
        "latitude": 3.898411,
        "status": "Open",
        "Date": "01/02/2025",
        "Hour": "05:56:49"
    },
    {
        "name": "Gaumont EST",
        "type": "OffStreetParking",
        "availableSpotNumber": 109,
        "totalSpotNumber": 109,
        "longitude": 43.604526,
        "latitude": 3.91529,
        "status": "Open",
        "Date": "01/02/2025",
        "Hour": "05:56:49"
    },
    {
        "name": "Gaumont OUEST",
        "type": "OffStreetParking",
        "availableSpotNumber": 248,
        "totalSpotNumber": 250,
        "longitude": 43.604824,
        "latitude": 3.914158,
        "status": "Open",
        "Date": "01/02/2025",
        "Hour": "05:56:49"
    },
    {
        "name": "Charles de Gaulle",
        "type": "OffStreetParking",
        "availableSpotNumber": 77,
        "totalSpotNumber": 260,
        "longitude": 43.6285421,
        "latitude": 3.8977621,
        "status": "Open",
        "Date": "01/02/2025",
        "Hour": "05:56:49"
    },
    {
        "name": "Polygone",
        "type": "OffStreetParking",
        "availableSpotNumber": 1692,
        "totalSpotNumber": 1911,
        "longitude": 43.607697,
        "latitude": 3.88515,
        "status": "Open",
        "Date": "01/02/2025",
        "Hour": "05:56:49"
    },
    {
        "name": "Arc de Triomphe",
        "type": "OffStreetParking",
        "availableSpotNumber": 139,
        "totalSpotNumber": 440,
        "longitude": 43.61100267,
        "latitude": 3.8732007,
        "status": "Open",
        "Date": "01/02/2025",
        "Hour": "05:56:49"
    },
    {
        "name": "Gaumont-Circe",
        "type": "OffStreetParking",
        "availableSpotNumber": 500,
        "totalSpotNumber": 500,
        "longitude": 43.60495377,
        "latitude": 3.9178495,
        "status": "Open",
        "Date": "01/02/2025",
        "Hour": "05:56:49"
    },
    {
        "name": "Antigone",
        "type": "OffStreetParking",
        "availableSpotNumber": 150,
        "totalSpotNumber": 239,
        "longitude": 43.60871606,
        "latitude": 3.88881893,
        "status": "Open",
        "Date": "01/02/2025",
        "Hour": "06:19:35"
    },
    {
        "name": "Comedie",
        "type": "OffStreetParking",
        "availableSpotNumber": 500,
        "totalSpotNumber": 698,
        "longitude": 43.60856092,
        "latitude": 3.87976196,
        "status": "Open",
        "Date": "01/02/2025",
        "Hour": "06:19:35"
    },
    {
        "name": "Corum",
        "type": "OffStreetParking",
        "availableSpotNumber": 359,
        "totalSpotNumber": 490,
        "longitude": 43.61388821,
        "latitude": 3.88225773,
        "status": "Open",
        "Date": "01/02/2025",
        "Hour": "06:19:35"
    },
    {
        "name": "Europa",
        "type": "OffStreetParking",
        "availableSpotNumber": 487,
        "totalSpotNumber": 591,
        "longitude": 43.60784971,
        "latitude": 3.89253074,
        "status": "Open",
        "Date": "01/02/2025",
        "Hour": "06:19:35"
    },
    {
        "name": "Foch",
        "type": "OffStreetParking",
        "availableSpotNumber": 89,
        "totalSpotNumber": 598,
        "longitude": 43.61074912,
        "latitude": 3.87657084,
        "status": "Open",
        "Date": "01/02/2025",
        "Hour": "06:19:35"
    },
    {
        "name": "Gambetta",
        "type": "OffStreetParking",
        "availableSpotNumber": 216,
        "totalSpotNumber": 440,
        "longitude": 43.60695138,
        "latitude": 3.87137436,
        "status": "Open",
        "Date": "01/02/2025",
        "Hour": "06:19:35"
    },
    {
        "name": "Gare",
        "type": "OffStreetParking",
        "availableSpotNumber": 424,
        "totalSpotNumber": 653,
        "longitude": 43.604024,
        "latitude": 3.87891,
        "status": "Open",
        "Date": "01/02/2025",
        "Hour": "06:19:35"
    },
    {
        "name": "Triangle",
        "type": "OffStreetParking",
        "availableSpotNumber": 362,
        "totalSpotNumber": 434,
        "longitude": 43.60923384,
        "latitude": 3.88184418,
        "status": "Open",
        "Date": "01/02/2025",
        "Hour": "06:19:35"
    },
    {
        "name": "Pitot",
        "type": "OffStreetParking",
        "availableSpotNumber": 507,
        "totalSpotNumber": 587,
        "longitude": 43.61224494,
        "latitude": 3.87019117,
        "status": "Open",
        "Date": "01/02/2025",
        "Hour": "06:19:35"
    },
    {
        "name": "Circe",
        "type": "OffStreetParking",
        "availableSpotNumber": 1171,
        "totalSpotNumber": 1200,
        "longitude": 43.60495377,
        "latitude": 3.9178495,
        "status": "Open",
        "Date": "01/02/2025",
        "Hour": "06:19:35"
    },
    {
        "name": "Garcia Lorca",
        "type": "OffStreetParking",
        "availableSpotNumber": 329,
        "totalSpotNumber": 395,
        "longitude": 43.59098509,
        "latitude": 3.8907158,
        "status": "Open",
        "Date": "01/02/2025",
        "Hour": "06:19:35"
    },
    {
        "name": "Mosson",
        "type": "OffStreetParking",
        "availableSpotNumber": 347,
        "totalSpotNumber": 350,
        "longitude": 43.61623716,
        "latitude": 3.81966554,
        "status": "Open",
        "Date": "01/02/2025",
        "Hour": "06:19:35"
    },
    {
        "name": "Sabines",
        "type": "OffStreetParking",
        "availableSpotNumber": 191,
        "totalSpotNumber": 220,
        "longitude": 43.58383263,
        "latitude": 3.8602246,
        "status": "Open",
        "Date": "01/02/2025",
        "Hour": "06:19:35"
    },
    {
        "name": "Sablassou",
        "type": "OffStreetParking",
        "availableSpotNumber": 357,
        "totalSpotNumber": 372,
        "longitude": 43.63419194,
        "latitude": 3.92229536,
        "status": "Open",
        "Date": "01/02/2025",
        "Hour": "06:19:35"
    },
    {
        "name": "Saint Jean Le Sec",
        "type": "OffStreetParking",
        "availableSpotNumber": 265,
        "totalSpotNumber": 285,
        "longitude": 43.57082225,
        "latitude": 3.8379312,
        "status": "Open",
        "Date": "01/02/2025",
        "Hour": "06:19:35"
    },
    {
        "name": "Euromedecine",
        "type": "OffStreetParking",
        "availableSpotNumber": 207,
        "totalSpotNumber": 255,
        "longitude": 43.63895359,
        "latitude": 3.82772365,
        "status": "Open",
        "Date": "01/02/2025",
        "Hour": "06:19:35"
    },
    {
        "name": "Occitanie",
        "type": "OffStreetParking",
        "availableSpotNumber": 480,
        "totalSpotNumber": 615,
        "longitude": 43.63456232,
        "latitude": 3.84859796,
        "status": "Open",
        "Date": "01/02/2025",
        "Hour": "06:19:35"
    },
    {
        "name": "Vicarello",
        "type": "OffStreetParking",
        "availableSpotNumber": 55,
        "totalSpotNumber": 64,
        "longitude": 43.63286,
        "latitude": 3.898411,
        "status": "Open",
        "Date": "01/02/2025",
        "Hour": "06:19:35"
    },
    {
        "name": "Gaumont EST",
        "type": "OffStreetParking",
        "availableSpotNumber": 109,
        "totalSpotNumber": 109,
        "longitude": 43.604526,
        "latitude": 3.91529,
        "status": "Open",
        "Date": "01/02/2025",
        "Hour": "06:19:35"
    },
    {
        "name": "Gaumont OUEST",
        "type": "OffStreetParking",
        "availableSpotNumber": 247,
        "totalSpotNumber": 250,
        "longitude": 43.604824,
        "latitude": 3.914158,
        "status": "Open",
        "Date": "01/02/2025",
        "Hour": "06:19:35"
    },
    {
        "name": "Charles de Gaulle",
        "type": "OffStreetParking",
        "availableSpotNumber": 76,
        "totalSpotNumber": 260,
        "longitude": 43.6285421,
        "latitude": 3.8977621,
        "status": "Open",
        "Date": "01/02/2025",
        "Hour": "06:19:35"
    },
    {
        "name": "Polygone",
        "type": "OffStreetParking",
        "availableSpotNumber": 1685,
        "totalSpotNumber": 1911,
        "longitude": 43.607697,
        "latitude": 3.88515,
        "status": "Open",
        "Date": "01/02/2025",
        "Hour": "06:19:35"
    },
    {
        "name": "Arc de Triomphe",
        "type": "OffStreetParking",
        "availableSpotNumber": 140,
        "totalSpotNumber": 440,
        "longitude": 43.61100267,
        "latitude": 3.8732007,
        "status": "Open",
        "Date": "01/02/2025",
        "Hour": "06:19:35"
    },
    {
        "name": "Gaumont-Circe",
        "type": "OffStreetParking",
        "availableSpotNumber": 500,
        "totalSpotNumber": 500,
        "longitude": 43.60495377,
        "latitude": 3.9178495,
        "status": "Open",
        "Date": "01/02/2025",
        "Hour": "06:19:35"
    },
    {
        "name": "Antigone",
        "type": "OffStreetParking",
        "availableSpotNumber": 148,
        "totalSpotNumber": 239,
        "longitude": 43.60871606,
        "latitude": 3.88881893,
        "status": "Open",
        "Date": "01/02/2025",
        "Hour": "06:32:59"
    },
    {
        "name": "Comedie",
        "type": "OffStreetParking",
        "availableSpotNumber": 500,
        "totalSpotNumber": 698,
        "longitude": 43.60856092,
        "latitude": 3.87976196,
        "status": "Open",
        "Date": "01/02/2025",
        "Hour": "06:32:59"
    },
    {
        "name": "Corum",
        "type": "OffStreetParking",
        "availableSpotNumber": 355,
        "totalSpotNumber": 490,
        "longitude": 43.61388821,
        "latitude": 3.88225773,
        "status": "Open",
        "Date": "01/02/2025",
        "Hour": "06:32:59"
    },
    {
        "name": "Europa",
        "type": "OffStreetParking",
        "availableSpotNumber": 487,
        "totalSpotNumber": 591,
        "longitude": 43.60784971,
        "latitude": 3.89253074,
        "status": "Open",
        "Date": "01/02/2025",
        "Hour": "06:32:59"
    },